country,state,city,station,last_update,latitude,longitude,pollutant_id,pollutant_min,pollutant_max,pollutant_avg
India,Andhra_Pradesh,Rajamahendravaram,"Anand Kala Kshetram, Rajamahendravaram - APPCB","13-12-2025 20:00:00",16.9872867,81.7363176,PM10,86,208,125
India,Andhra_Pradesh,Rajamahendravaram,"Anand Kala Kshetram, Rajamahendravaram - APPCB","13-12-2025 20:00:00",16.9872867,81.7363176,NO2,16,114,45
India,Andhra_Pradesh,Rajamahendravaram,"Anand Kala Kshetram, Rajamahendravaram - APPCB","13-12-2025 20:00:00",16.9872867,81.7363176,SO2,3,35,18
India,Andhra_Pradesh,Rajamahendravaram,"Anand Kala Kshetram, Rajamahendravaram - APPCB","13-12-2025 20:00:00",16.9872867,81.7363176,CO,22,80,34
India,Andhra_Pradesh,Tirupati,"Vaikuntapuram, Tirupati - APPCB","13-12-2025 20:00:00",13.615387,79.409230,NO2,13,17,15
India,Andhra_Pradesh,Tirupati,"Vaikuntapuram, Tirupati - APPCB","13-12-2025 20:00:00",13.615387,79.409230,OZONE,16,17,16
India,Andhra_Pradesh,Vijayawada,"HB Colony, Vijayawada - APPCB","13-12-2025 20:00:00",16.536107,80.594233,OZONE,18,38,30
India,Bihar,Bhagalpur,"DM Office_Kachari Chowk, Bhagalpur - BSPCB","13-12-2025 20:00:00",25.251013,86.989001,PM10,31,159,102
India,Bihar,Bhagalpur,"Mayaganj, Bhagalpur - BSPCB","13-12-2025 20:00:00",25.265194,87.012947,PM2.5,15,193,102
India,Bihar,Bhagalpur,"Mayaganj, Bhagalpur - BSPCB","13-12-2025 20:00:00",25.265194,87.012947,NH3,7,14,10
India,Bihar,Bhagalpur,"Mayaganj, Bhagalpur - BSPCB","13-12-2025 20:00:00",25.265194,87.012947,CO,50,101,73
India,Bihar,"Bihar Sharif","D M Colony, Bihar Sharif - BSPCB","13-12-2025 20:00:00",25.204762,85.514960,PM2.5,60,356,207
India,Bihar,"Bihar Sharif","D M Colony, Bihar Sharif - BSPCB","13-12-2025 20:00:00",25.204762,85.514960,PM10,48,209,117
India,Bihar,"Bihar Sharif","D M Colony, Bihar Sharif - BSPCB","13-12-2025 20:00:00",25.204762,85.514960,CO,2,114,15
India,Bihar,Katihar,"Mirchaibari, Katihar - BSPCB","13-12-2025 20:00:00",25.560083,87.553265,NH3,1,1,1
India,Bihar,Katihar,"Mirchaibari, Katihar - BSPCB","13-12-2025 20:00:00",25.560083,87.553265,CO,38,72,51
India,Bihar,Katihar,"Mirchaibari, Katihar - BSPCB","13-12-2025 20:00:00",25.560083,87.553265,OZONE,4,7,6
India,Bihar,Kishanganj,"SDM Office_Khagra, Kishanganj - BSPCB","13-12-2025 20:00:00",26.0881305,87.93840336,NO2,9,13,11
India,Bihar,Manguraha,"Forest Rest House, Manguraha - BSPCB","13-12-2025 20:00:00",27.308328,84.531742,PM10,39,149,75
India,Bihar,Manguraha,"Forest Rest House, Manguraha - BSPCB","13-12-2025 20:00:00",27.308328,84.531742,CO,31,33,32
India,Arunachal_Pradesh,Naharlagun,"Naharlagun, Naharlagun - APSPCB","13-12-2025 20:00:00",27.103358,93.679645,CO,7,62,23
India,Arunachal_Pradesh,Naharlagun,"Naharlagun, Naharlagun - APSPCB","13-12-2025 20:00:00",27.103358,93.679645,OZONE,5,6,6
India,Assam,Byrnihat,"Central Academy for SFS, Byrnihat - PCBA","13-12-2025 20:00:00",26.071318,91.87488,PM2.5,114,319,173
India,Assam,Byrnihat,"Central Academy for SFS, Byrnihat - PCBA","13-12-2025 20:00:00",26.071318,91.87488,PM10,81,154,101
India,Assam,Byrnihat,"Central Academy for SFS, Byrnihat - PCBA","13-12-2025 20:00:00",26.071318,91.87488,SO2,5,12,7
India,Bihar,Araria,"Kharahiya Basti, Araria - BSPCB","13-12-2025 20:00:00",26.146529,87.454184,CO,4,47,23
India,Bihar,Arrah,"New DM Office, Arrah - BSPCB","13-12-2025 20:00:00",25.5626095,84.663264,NH3,1,1,1
India,Bihar,Arrah,"New DM Office, Arrah - BSPCB","13-12-2025 20:00:00",25.5626095,84.663264,SO2,8,10,10
India,Bihar,Aurangabad,"Gurdeo Nagar, Aurangabad - BSPCB","13-12-2025 20:00:00",24.75746,84.366208,PM2.5,NA,NA,NA
India,Bihar,Aurangabad,"Gurdeo Nagar, Aurangabad - BSPCB","13-12-2025 20:00:00",24.75746,84.366208,NO2,7,8,8
India,Andhra_Pradesh,Amaravati,"Secretariat, Amaravati - APPCB","13-12-2025 20:00:00",16.5150833,80.5181667,OZONE,1,64,45
India,Andhra_Pradesh,Chittoor,"Gangineni Cheruvu, Chittoor - APPCB","13-12-2025 20:00:00",13.204880,79.097889,PM10,21,450,127
India,Andhra_Pradesh,Chittoor,"Gangineni Cheruvu, Chittoor - APPCB","13-12-2025 20:00:00",13.204880,79.097889,CO,21,57,27
India,Andhra_Pradesh,Kadapa,"Yerramukkapalli, Kadapa - APPCB","13-12-2025 20:00:00",14.465052,78.824187,PM10,32,136,77
India,Assam,Nagaon,"Christianpatty, Nagaon - PCBA","13-12-2025 20:00:00",26.349082,92.68449,NO2,1,2,1
India,Assam,Nagaon,"Christianpatty, Nagaon - PCBA","13-12-2025 20:00:00",26.349082,92.68449,OZONE,8,11,9
India,Assam,Silchar,"Tarapur, Silchar - PCBA","13-12-2025 20:00:00",24.82827,92.79525,NO2,17,21,19
India,Assam,Sivasagar,"Girls College, Sivasagar - PCBA","13-12-2025 20:00:00",26.987634,94.636574,NH3,4,19,10
India,Bihar,Buxar,"Charitra Van, Buxar - BSPCB","13-12-2025 20:00:00",25.567520,83.966379,SO2,5,10,7
India,Bihar,Gaya,"Kareemganj, Gaya - BSPCB","13-12-2025 20:00:00",24.792403,84.992416,NH3,4,6,5
India,Bihar,Gaya,"Kareemganj, Gaya - BSPCB","13-12-2025 20:00:00",24.792403,84.992416,SO2,15,18,16
India,Bihar,Gaya,"SFTI Kusdihra, Gaya - BSPCB","13-12-2025 20:00:00",24.762518,84.982348,NH3,3,4,3
India,Andhra_Pradesh,Vijayawada,"Rajiv Gandhi Park, Vijayawada - APPCB","13-12-2025 20:00:00",16.509717,80.612222,NO2,NA,NA,NA
India,Andhra_Pradesh,Vijayawada,"Rajiv Nagar, Vijayawada - APPCB","13-12-2025 20:00:00",16.554731,80.649110,PM10,47,58,50
India,Andhra_Pradesh,Vijayawada,"Rajiv Nagar, Vijayawada - APPCB","13-12-2025 20:00:00",16.554731,80.649110,SO2,13,17,15
India,"Andaman and Nicobar","Sri Vijaya Puram","Police Line, Sri Vijaya Puram - ANPCC","13-12-2025 20:00:00",11.654054,92.734055,PM2.5,26,38,29
India,Bihar,Muzaffarpur,"MIT-Daudpur Kothi, Muzaffarpur - BSPCB","13-12-2025 20:00:00",26.1403345,85.3650192,NH3,1,1,1
India,Bihar,Muzaffarpur,"MIT-Daudpur Kothi, Muzaffarpur - BSPCB","13-12-2025 20:00:00",26.1403345,85.3650192,CO,43,68,65
India,Bihar,Muzaffarpur,"Muzaffarpur Collectorate, Muzaffarpur - BSPCB","13-12-2025 20:00:00",26.1209,85.3647,SO2,5,6,5
India,Bihar,Patna,"Govt. High School Shikarpur, Patna - BSPCB","13-12-2025 20:00:00",25.592539,85.227158,CO,62,190,92
India,Bihar,Patna,"IGSC Planetarium Complex, Patna - BSPCB","13-12-2025 20:00:00",25.610369,85.132568,NO2,1,19,12
India,Bihar,Patna,"IGSC Planetarium Complex, Patna - BSPCB","13-12-2025 20:00:00",25.610369,85.132568,SO2,1,31,18
India,Bihar,Patna,"IGSC Planetarium Complex, Patna - BSPCB","13-12-2025 20:00:00",25.610369,85.132568,OZONE,28,31,29
India,Bihar,Patna,"Muradpur, Patna - BSPCB","13-12-2025 20:00:00",25.619651,85.147382,NH3,4,5,5
India,Bihar,Patna,"Rajbansi Nagar, Patna - BSPCB","13-12-2025 20:00:00",25.599486,85.113666,CO,7,126,60
India,Bihar,Patna,"Samanpura, Patna - BSPCB","13-12-2025 20:00:00",25.596727,85.085624,CO,14,156,92
India,Bihar,Purnia,"Mariam Nagar, Purnia - BSPCB","13-12-2025 20:00:00",25.366336,87.117468,OZONE,19,28,23
India,Chhattisgarh,Bhilai,"32Bungalows, Bhilai - CECB","13-12-2025 20:00:00",21.194815,81.314770,PM2.5,16,46,28
India,Chhattisgarh,Bhilai,"32Bungalows, Bhilai - CECB","13-12-2025 20:00:00",21.194815,81.314770,SO2,5,60,18
India,Chhattisgarh,Bhilai,"Civic Center, Bhilai - Bhilai Steel Plant","13-12-2025 20:00:00",21.185571,81.343175,CO,21,22,21
India,Chhattisgarh,Bilaspur,"Mangala, Bilaspur - NTPC","13-12-2025 20:00:00",22.08815,82.13737,NO2,19,71,29
India,Bihar,Munger,"Town Hall, Munger - BSPCB","13-12-2025 20:00:00",25.376776,86.471523,PM10,43,161,113
India,Bihar,Munger,"Town Hall, Munger - BSPCB","13-12-2025 20:00:00",25.376776,86.471523,CO,12,48,29
India,Bihar,Muzaffarpur,"MIT-Daudpur Kothi, Muzaffarpur - BSPCB","13-12-2025 20:00:00",26.1403345,85.3650192,PM2.5,92,117,108
India,Chandigarh,Chandigarh,"Sector-25, Chandigarh - CPCC","13-12-2025 20:00:00",30.751462,76.762879,SO2,7,12,9
India,Chandigarh,Chandigarh,"Sector-25, Chandigarh - CPCC","13-12-2025 20:00:00",30.751462,76.762879,CO,55,111,68
India,Chandigarh,Chandigarh,"Sector-53, Chandigarh - CPCC","13-12-2025 20:00:00",30.719859,76.738637,PM10,55,183,102
India,Bihar,Rajgir,"Dangi Tola, Rajgir - BSPCB","13-12-2025 20:00:00",25.03280,85.41948,NO2,8,10,9
India,Bihar,Samastipur,"DM Office_Kasipur, Samastipur - BSPCB","13-12-2025 20:00:00",25.859655,85.77944,OZONE,8,9,8
India,Bihar,Motihari,"Gandak Colony, Motihari - BSPCB","13-12-2025 20:00:00",26.63086,84.90051,PM2.5,25,200,83
India,Bihar,Siwan,"Chitragupta Nagar, Siwan - BSPCB","13-12-2025 20:00:00",26.2271665,84.3570427,CO,27,30,29
India,Bihar,Motihari,"Gandak Colony, Motihari - BSPCB","13-12-2025 20:00:00",26.63086,84.90051,NH3,3,3,3
India,Chhattisgarh,Bilaspur,"Mangala, Bilaspur - NTPC","13-12-2025 20:00:00",22.08815,82.13737,CO,16,107,30
India,Chhattisgarh,Chhal,"Nawapara SECL Colony, Chhal - CECB","13-12-2025 20:00:00",22.118125,83.140608,NO2,8,25,12
India,Chhattisgarh,Chhal,"Nawapara SECL Colony, Chhal - CECB","13-12-2025 20:00:00",22.118125,83.140608,NH3,5,5,5
India,Chhattisgarh,Korba,"Rampur, Korba - CECB","13-12-2025 20:00:00",22.368195,82.746431,PM2.5,49,86,51
India,Chhattisgarh,Korba,"Rampur, Korba - CECB","13-12-2025 20:00:00",22.368195,82.746431,SO2,10,16,14
India,Chhattisgarh,Korba,"Urja Nagar, Korba - CECB","13-12-2025 20:00:00",22.348441,82.549611,NO2,16,31,26
India,Chhattisgarh,Korba,"Urja Nagar, Korba - CECB","13-12-2025 20:00:00",22.348441,82.549611,SO2,3,29,12
India,Chhattisgarh,Kunjemura,"OP Jindal School, Kunjemura - CECB","13-12-2025 20:00:00",22.126650,83.483212,CO,15,42,23
India,Delhi,Delhi,"IGI Airport (T3), Delhi - IMD","13-12-2025 20:00:00",28.5627763,77.1180053,OZONE,5,105,58
India,Delhi,Delhi,"IHBAS, Dilshad Garden, Delhi - CPCB","13-12-2025 20:00:00",28.6811736,77.3025234,PM2.5,47,500,251
India,Delhi,Delhi,"IHBAS, Dilshad Garden, Delhi - CPCB","13-12-2025 20:00:00",28.6811736,77.3025234,SO2,12,26,18
India,Delhi,Delhi,"IIT Delhi, Delhi - IITM","13-12-2025 20:00:00",28.542460,77.191651,PM10,167,445,324
India,Delhi,Delhi,"ITO, Delhi - CPCB","13-12-2025 20:00:00",28.628624,77.241060,OZONE,13,18,16
India,Delhi,Delhi,"Jahangirpuri, Delhi - DPCC","13-12-2025 20:00:00",28.732820,77.170633,PM10,432,500,461
India,Delhi,Delhi,"Jahangirpuri, Delhi - DPCC","13-12-2025 20:00:00",28.732820,77.170633,SO2,1,36,20
India,Delhi,Delhi,"Chandni Chowk, Delhi - IITM","13-12-2025 20:00:00",28.656756,77.227234,CO,56,132,81
India,Delhi,Delhi,"DTU, Delhi - CPCB","13-12-2025 20:00:00",28.7500499,77.1112615,PM2.5,463,500,492
India,Delhi,Delhi,"DTU, Delhi - CPCB","13-12-2025 20:00:00",28.7500499,77.1112615,SO2,32,38,35
India,Delhi,Delhi,"Dr. Karni Singh Shooting Range, Delhi - DPCC","13-12-2025 20:00:00",28.498571,77.264840,NO2,46,172,117
India,Delhi,Delhi,"Dr. Karni Singh Shooting Range, Delhi - DPCC","13-12-2025 20:00:00",28.498571,77.264840,OZONE,6,159,81
India,Delhi,Delhi,"Dwarka-Sector 8, Delhi - DPCC ","13-12-2025 20:00:00",28.5710274,77.0719006,SO2,25,39,31
India,Chhattisgarh,Tumidih,"OP Jindal Industrial Park, Tumidih - CECB","13-12-2025 20:00:00",22.06631475,83.33820077,PM10,67,146,100
India,Delhi,Delhi,"Alipur, Delhi - DPCC","13-12-2025 20:00:00",28.815329,77.153010,NH3,8,11,9
India,Delhi,Delhi,"Anand Vihar, Delhi - DPCC","13-12-2025 20:00:00",28.647622,77.3158090,PM2.5,460,500,490
India,Delhi,Delhi,"Anand Vihar, Delhi - DPCC","13-12-2025 20:00:00",28.647622,77.3158090,SO2,8,23,16
India,Delhi,Delhi,"Ashok Vihar, Delhi - DPCC","13-12-2025 20:00:00",28.695381,77.181665,SO2,2,30,16
India,Chhattisgarh,Raipur,"Bhatagaon New ISBT, Raipur - CECB","13-12-2025 20:00:00",21.219665,81.630094,PM10,41,286,135
India,Chhattisgarh,Raipur,"Bhatagaon New ISBT, Raipur - CECB","13-12-2025 20:00:00",21.219665,81.630094,NO2,NA,NA,NA
India,Chhattisgarh,Raipur,"Bhatagaon New ISBT, Raipur - CECB","13-12-2025 20:00:00",21.219665,81.630094,CO,76,126,86
India,Chhattisgarh,Raipur,"Krishak Nagar, Raipur - CECB","13-12-2025 20:00:00",21.237755,81.705301,SO2,6,9,7
India,Chhattisgarh,Raipur,"Siltara Phase-II, Raipur - CECB","13-12-2025 20:00:00",21.371751,81.664929,PM10,NA,NA,NA
India,Delhi,Delhi,"Jawaharlal Nehru Stadium, Delhi - DPCC","13-12-2025 20:00:00",28.580280,77.233829,NH3,4,5,5
India,Delhi,Delhi,"Lodhi Road, Delhi - IITM","13-12-2025 20:00:00",28.588333,77.221667,PM10,NA,NA,NA
India,Delhi,Delhi,"Lodhi Road, Delhi - IMD","13-12-2025 20:00:00",28.5918245,77.2273074,PM2.5,NA,NA,NA
India,Delhi,Delhi,"Major Dhyan Chand National Stadium, Delhi - DPCC","13-12-2025 20:00:00",28.611281,77.237738,SO2,10,50,18
India,Delhi,Delhi,"Mandir Marg, Delhi - DPCC","13-12-2025 20:00:00",28.636429,77.201067,CO,18,123,111
India,Delhi,Delhi,"Mandir Marg, Delhi - DPCC","13-12-2025 20:00:00",28.636429,77.201067,OZONE,7,80,43
India,Delhi,Delhi,"Mundka, Delhi - DPCC","13-12-2025 20:00:00",28.684678,77.076574,CO,44,136,79
India,Delhi,Delhi,"Mundka, Delhi - DPCC","13-12-2025 20:00:00",28.684678,77.076574,OZONE,3,163,85
India,Delhi,Delhi,"Najafgarh, Delhi - DPCC","13-12-2025 20:00:00",28.570173,76.933762,SO2,9,53,25
India,Delhi,Delhi,"Bawana, Delhi - DPCC","13-12-2025 20:00:00",28.776200,77.051074,OZONE,4,119,60
India,Delhi,Delhi,"CRRI Mathura Road, Delhi - IMD","13-12-2025 20:00:00",28.5512005,77.2735737,NO2,18,145,45
India,Gujarat,Ankleshwar,"GIDC, Ankleshwar - GPCB","13-12-2025 20:00:00",21.613267,73.010555,SO2,42,43,42
India,Gujarat,Ankleshwar,"GIDC, Ankleshwar - GPCB","13-12-2025 20:00:00",21.613267,73.010555,OZONE,58,62,59
India,Gujarat,Gandhinagar,"IIPHG Lekawada, Gandhinagar - IITM","13-12-2025 20:00:00",23.243639,72.68994,PM2.5,51,133,95
India,Gujarat,Gandhinagar,"IIPHG Lekawada, Gandhinagar - IITM","13-12-2025 20:00:00",23.243639,72.68994,PM10,58,133,101
India,Gujarat,Gandhinagar,"Sector-10, Gandhinagar - GPCB","13-12-2025 20:00:00",23.221714,72.654328,PM2.5,43,287,104
India,Gujarat,Gandhinagar,"Sector-10, Gandhinagar - GPCB","13-12-2025 20:00:00",23.221714,72.654328,CO,23,52,34
India,Gujarat,Gandhinagar,"Sector-10, Gandhinagar - GPCB","13-12-2025 20:00:00",23.221714,72.654328,OZONE,3,67,45
India,Gujarat,Surat,"Science Center, Surat - SMC","13-12-2025 20:00:00",21.170046,72.795405,NO2,1,144,13
India,Gujarat,Vapi,"Phase-1 GIDC, Vapi - GPCB","13-12-2025 20:00:00",20.362421,72.918013,NH3,4,6,5
India,Gujarat,Ahmedabad,"SAC ISRO Bopal, Ahmedabad - IITM","13-12-2025 20:00:00",23.041137,72.456691,PM10,101,198,155
India,Gujarat,Ahmedabad,"SAC ISRO Bopal, Ahmedabad - IITM","13-12-2025 20:00:00",23.041137,72.456691,NO2,27,72,48
India,Gujarat,Ahmedabad,"SAC ISRO Satellite, Ahmedabad - IITM","13-12-2025 20:00:00",23.023389,72.515201,PM10,69,113,93
India,Gujarat,Ahmedabad,"SVPI Airport Hansol, Ahmedabad - IITM","13-12-2025 20:00:00",23.076793,72.627874,PM2.5,32,100,66
India,Gujarat,Ahmedabad,"SVPI Airport Hansol, Ahmedabad - IITM","13-12-2025 20:00:00",23.076793,72.627874,PM10,100,188,130
India,Gujarat,Ahmedabad,"SVPI Airport Hansol, Ahmedabad - IITM","13-12-2025 20:00:00",23.076793,72.627874,NH3,3,9,4
India,Gujarat,Ahmedabad,"SVPI Airport Hansol, Ahmedabad - IITM","13-12-2025 20:00:00",23.076793,72.627874,CO,6,103,27
India,Gujarat,Ankleshwar,"GIDC, Ankleshwar - GPCB","13-12-2025 20:00:00",21.613267,73.010555,NH3,7,7,7
India,Gujarat,Ahmedabad,"Gyaspur, Ahmedabad - IITM","13-12-2025 20:00:00",22.977134,72.553024,SO2,1,52,27
India,Gujarat,Ahmedabad,"Maninagar, Ahmedabad - GPCB","13-12-2025 20:00:00",23.002657,72.591912,PM2.5,34,158,94
India,Gujarat,Ahmedabad,"Raikhad, Ahmedabad - IITM","13-12-2025 20:00:00",23.020509,72.579261,PM10,113,196,150
India,Gujarat,Ahmedabad,"Raikhad, Ahmedabad - IITM","13-12-2025 20:00:00",23.020509,72.579261,CO,2,82,20
India,Gujarat,Ahmedabad,"Rakhial, Ahmedabad - IITM","13-12-2025 20:00:00",23.016834,72.625775,PM2.5,NA,NA,NA
India,Gujarat,Ahmedabad,"Rakhial, Ahmedabad - IITM","13-12-2025 20:00:00",23.016834,72.625775,NH3,NA,NA,NA
India,Gujarat,Ahmedabad,"SAC ISRO Bopal, Ahmedabad - IITM","13-12-2025 20:00:00",23.041137,72.456691,PM2.5,NA,NA,NA
India,Delhi,Delhi,"Rohini, Delhi - DPCC","13-12-2025 20:00:00",28.732528,77.119920,OZONE,6,135,79
India,Delhi,Delhi,"Shadipur, Delhi - CPCB","13-12-2025 20:00:00",28.6514781,77.1473105,PM10,284,500,441
India,Delhi,Delhi,"Sirifort, Delhi - CPCB","13-12-2025 20:00:00",28.5504249,77.2159377,NH3,10,11,11
India,Delhi,Delhi,"Sri Aurobindo Marg, Delhi - DPCC","13-12-2025 20:00:00",28.531346,77.190156,NO2,4,107,39
India,Delhi,Delhi,"Najafgarh, Delhi - DPCC","13-12-2025 20:00:00",28.570173,76.933762,CO,55,110,84
India,Delhi,Delhi,"Narela, Delhi - DPCC","13-12-2025 20:00:00",28.822836,77.101981,PM10,417,500,454
India,Delhi,Delhi,"Narela, Delhi - DPCC","13-12-2025 20:00:00",28.822836,77.101981,NO2,35,91,62
India,Delhi,Delhi,"Narela, Delhi - DPCC","13-12-2025 20:00:00",28.822836,77.101981,NH3,8,12,10
India,Delhi,Delhi,"Narela, Delhi - DPCC","13-12-2025 20:00:00",28.822836,77.101981,OZONE,4,139,75
India,Delhi,Delhi,"North Campus, DU, Delhi - IMD","13-12-2025 20:00:00",28.6573814,77.1585447,OZONE,15,307,138
India,Delhi,Delhi,"Okhla Phase-2, Delhi - DPCC","13-12-2025 20:00:00",28.530785,77.271255,SO2,15,45,29
India,Delhi,Delhi,"Patparganj, Delhi - DPCC","13-12-2025 20:00:00",28.623763,77.287209,SO2,4,13,8
India,Delhi,Delhi,"Vivek Vihar, Delhi - DPCC","13-12-2025 20:00:00",28.672342,77.315260,NH3,14,21,17
India,Delhi,Delhi,"Vivek Vihar, Delhi - DPCC","13-12-2025 20:00:00",28.672342,77.315260,SO2,7,27,14
India,Delhi,Delhi,"Wazirpur, Delhi - DPCC","13-12-2025 20:00:00",28.699793,77.165453,PM10,416,500,483
India,Delhi,Delhi,"Pusa, Delhi - IMD","13-12-2025 20:00:00",28.636110,77.173332,NO2,32,269,94
India,Delhi,Delhi,"R K Puram, Delhi - DPCC","13-12-2025 20:00:00",28.563262,77.186937,PM2.5,388,500,456
India,Delhi,Delhi,"R K Puram, Delhi - DPCC","13-12-2025 20:00:00",28.563262,77.186937,NH3,8,13,10
India,Gujarat,Vatva,"Phase-4 GIDC, Vatva - GPCB","13-12-2025 20:00:00",22.969611,72.643500,PM2.5,34,234,116
India,Gujarat,Vatva,"Phase-4 GIDC, Vatva - GPCB","13-12-2025 20:00:00",22.969611,72.643500,SO2,5,17,11
India,Haryana,Kurukshetra,"Sector-7, Kurukshetra - HSPCB","13-12-2025 20:00:00",29.966942,76.875879,NO2,17,21,19
India,Haryana,Kurukshetra,"Sector-7, Kurukshetra - HSPCB","13-12-2025 20:00:00",29.966942,76.875879,SO2,2,21,7
India,Haryana,Mandikhera,"General Hospital, Mandikhera(Nuh) - HSPCB","13-12-2025 20:00:00",27.9002,76.9938,NO2,20,24,22
India,Haryana,Mandikhera,"General Hospital, Mandikhera(Nuh) - HSPCB","13-12-2025 20:00:00",27.9002,76.9938,SO2,30,37,34
India,Haryana,Mandikhera,"General Hospital, Mandikhera(Nuh) - HSPCB","13-12-2025 20:00:00",27.9002,76.9938,OZONE,22,31,27
India,Haryana,Manesar,"Sector-2 IMT, Manesar - HSPCB","13-12-2025 20:00:00",28.360699,76.936090,NO2,55,85,60
India,Haryana,Manesar,"Sector-2 IMT, Manesar - HSPCB","13-12-2025 20:00:00",28.360699,76.936090,SO2,6,19,13
India,Haryana,Narnaul,"Shastri Nagar, Narnaul - HSPCB","13-12-2025 20:00:00",28.060249,76.113115,PM2.5,171,308,217
India,Haryana,Narnaul,"Shastri Nagar, Narnaul - HSPCB","13-12-2025 20:00:00",28.060249,76.113115,SO2,6,7,6
India,Haryana,Narnaul,"Shastri Nagar, Narnaul - HSPCB","13-12-2025 20:00:00",28.060249,76.113115,CO,18,74,23
India,Haryana,Gurugram,"Vikas Sadan, Gurugram - HSPCB","13-12-2025 20:00:00",28.4501238,77.0263051,PM2.5,286,308,295
India,Haryana,Gurugram,"Vikas Sadan, Gurugram - HSPCB","13-12-2025 20:00:00",28.4501238,77.0263051,PM10,144,158,148
India,Haryana,Gurugram,"Vikas Sadan, Gurugram - HSPCB","13-12-2025 20:00:00",28.4501238,77.0263051,SO2,2,7,5
India,Haryana,Hisar,"Urban Estate-II, Hisar - HSPCB","13-12-2025 20:00:00",29.140560,75.744941,PM2.5,37,77,52
India,Haryana,Hisar,"Urban Estate-II, Hisar - HSPCB","13-12-2025 20:00:00",29.140560,75.744941,PM10,132,189,157
India,Haryana,Hisar,"Urban Estate-II, Hisar - HSPCB","13-12-2025 20:00:00",29.140560,75.744941,NH3,7,8,8
India,Haryana,Kaithal,"Rishi Nagar, Kaithal - HSPCB","13-12-2025 20:00:00",29.8006,76.4155,PM10,162,293,208
India,Haryana,Karnal,"Sector-12, Karnal - HSPCB","13-12-2025 20:00:00",29.695300,77.002700,NO2,6,7,6
India,Haryana,Karnal,"Sector-12, Karnal - HSPCB","13-12-2025 20:00:00",29.695300,77.002700,NH3,6,6,6
India,Haryana,Faridabad,"Sector 30, Faridabad - HSPCB","13-12-2025 20:00:00",28.4417,77.3217,NO2,35,39,37
India,Haryana,Fatehabad,"Huda Sector, Fatehabad - HSPCB","13-12-2025 20:00:00",29.503664,75.467934,PM2.5,147,315,241
India,Haryana,Fatehabad,"Huda Sector, Fatehabad - HSPCB","13-12-2025 20:00:00",29.503664,75.467934,PM10,132,230,173
India,Haryana,Fatehabad,"Huda Sector, Fatehabad - HSPCB","13-12-2025 20:00:00",29.503664,75.467934,NH3,13,15,14
India,Haryana,Fatehabad,"Huda Sector, Fatehabad - HSPCB","13-12-2025 20:00:00",29.503664,75.467934,OZONE,15,18,17
India,Haryana,Gurugram,"NISE Gwal Pahari, Gurugram - IMD","13-12-2025 20:00:00",28.422681,77.148944,CO,40,102,68
India,Haryana,Gurugram,"Sector-51, Gurugram - HSPCB","13-12-2025 20:00:00",28.4227,77.0667,NO2,NA,NA,NA
India,Haryana,Gurugram,"Teri Gram, Gurugram - HSPCB","13-12-2025 20:00:00",28.4275,77.1465,NO2,37,76,53
India,Haryana,Panipat,"Sector-18, Panipat - HSPCB","13-12-2025 20:00:00",29.432304,76.972765,NH3,2,3,2
India,Haryana,Panipat,"Sector-18, Panipat - HSPCB","13-12-2025 20:00:00",29.432304,76.972765,OZONE,30,30,30
India,Haryana,Rohtak,"MD University, Rohtak - HSPCB","13-12-2025 20:00:00",28.52123,76.37138,PM2.5,215,500,307
India,Haryana,Sonipat,"Murthal, Sonipat - HSPCB","13-12-2025 20:00:00",29.027200,77.062100,SO2,6,11,8
India,Haryana,Sonipat,"Murthal, Sonipat - HSPCB","13-12-2025 20:00:00",29.027200,77.062100,CO,55,90,83
India,Haryana,Sonipat,"Murthal, Sonipat - HSPCB","13-12-2025 20:00:00",29.027200,77.062100,OZONE,25,26,26
India,Haryana,"Yamuna Nagar","Gobind Pura, Yamuna Nagar - HSPCB","13-12-2025 20:00:00",30.1480566,77.2893471,NO2,11,21,16
India,Haryana,Palwal,"Shyam Nagar, Palwal - HSPCB","13-12-2025 20:00:00",28.1485564,77.3320667,PM10,110,190,150
India,Haryana,Palwal,"Shyam Nagar, Palwal - HSPCB","13-12-2025 20:00:00",28.1485564,77.3320667,NH3,8,9,9
India,Haryana,Panchgaon,"Amity University, Panchgaon - IITM","13-12-2025 20:00:00",28.3153,76.9143,NO2,1,18,6
India,Haryana,Panchgaon,"Amity University, Panchgaon - IITM","13-12-2025 20:00:00",28.3153,76.9143,SO2,2,21,9
India,Haryana,Panchkula,"Sector-6, Panchkula - HSPCB ","13-12-2025 20:00:00",30.7057778,76.8531805555555,NO2,24,26,25
India,Haryana,Panipat,"Sector-18, Panipat - HSPCB","13-12-2025 20:00:00",29.432304,76.972765,PM2.5,98,275,201
India,Haryana,Ballabgarh,"Nathu Colony, Ballabgarh - HSPCB","13-12-2025 20:00:00",28.3419248,77.319699,PM2.5,310,366,351
India,Haryana,Ballabgarh,"Nathu Colony, Ballabgarh - HSPCB","13-12-2025 20:00:00",28.3419248,77.319699,OZONE,15,15,15
India,Haryana,Bhiwani,"H.B. Colony, Bhiwani - HSPCB","13-12-2025 20:00:00",28.806223,76.141105,PM10,78,296,106
India,Haryana,Bhiwani,"H.B. Colony, Bhiwani - HSPCB","13-12-2025 20:00:00",28.806223,76.141105,CO,6,14,11
India,Gujarat,Vatva,"Phase-4 GIDC, Vatva - GPCB","13-12-2025 20:00:00",22.969611,72.643500,OZONE,13,45,37
India,Haryana,Ambala,"Patti Mehar, Ambala - HSPCB","13-12-2025 20:00:00",30.379589,76.778328,OZONE,48,51,50
India,Haryana,Bahadurgarh,"Arya Nagar, Bahadurgarh - HSPCB","13-12-2025 20:00:00",28.6701,76.9254,PM10,47,480,290
India,Haryana,"Charkhi Dadri","Mini Secretariat, Charkhi Dadri - HSPCB","13-12-2025 20:00:00",28.593883,76.270653,PM10,130,406,195
India,Haryana,"Charkhi Dadri","Mini Secretariat, Charkhi Dadri - HSPCB","13-12-2025 20:00:00",28.593883,76.270653,NO2,9,22,15
India,Haryana,Dharuhera,"Municipal Corporation Office, Dharuhera -  HSPCB","13-12-2025 20:00:00",28.206800,76.799700,SO2,7,15,10
India,Haryana,Faridabad,"Sector 11, Faridabad - HSPCB","13-12-2025 20:00:00",28.376058,77.315741,SO2,5,7,6
India,Karnataka,Bengaluru,"Silk Board, Bengaluru - KSPCB","13-12-2025 20:00:00",12.917348,77.622813,CO,20,34,30
India,Karnataka,Chamarajanagar,"Urban, Chamarajanagar - KSPCB","13-12-2025 20:00:00",11.55358,76.55521,PM10,37,50,44
India,Karnataka,Chamarajanagar,"Urban, Chamarajanagar - KSPCB","13-12-2025 20:00:00",11.55358,76.55521,OZONE,18,30,27
India,Karnataka,Chikkamagaluru,"Kalyana Nagara, Chikkamagaluru - KSPCB","13-12-2025 20:00:00",13.328028,75.797056,NH3,2,3,2
India,Karnataka,Dharwad,"Kalabhavan, Dharwad - KSPCB","13-12-2025 20:00:00",15.459706,75.008381,OZONE,32,33,32
India,Karnataka,Hubballi,"Lingaraj Nagar, Hubballi - KSPCB","13-12-2025 20:00:00",15.3714823,75.1160168,PM10,59,88,61
India,Karnataka,Bengaluru,"Jayanagar 5th Block, Bengaluru - KSPCB","13-12-2025 20:00:00",12.920984,77.584908,NO2,9,47,28
India,Karnataka,Bengaluru,"Jigani, Bengaluru - KSPCB","13-12-2025 20:00:00",12.7816279,77.6299145,PM10,35,152,100
India,Karnataka,Bengaluru,"Jigani, Bengaluru - KSPCB","13-12-2025 20:00:00",12.7816279,77.6299145,NO2,23,25,24
India,Karnataka,Bengaluru,"Kasturi Nagar, Bengaluru - KSPCB","13-12-2025 20:00:00",13.003872,77.664217,OZONE,20,21,20
India,Karnataka,Bengaluru,"Peenya, Bengaluru - CPCB","13-12-2025 20:00:00",13.0270199,77.494094,NH3,3,4,4
India,Haryana,"Yamuna Nagar","Gobind Pura, Yamuna Nagar - HSPCB","13-12-2025 20:00:00",30.1480566,77.2893471,NH3,1,6,4
India,Jammu_and_Kashmir,Srinagar,"Rajbagh, Srinagar - JKSPCB","13-12-2025 20:00:00",34.066206,74.819820,CO,14,26,22
India,Jharkhand,Dhanbad,"Sardar Patel Nagar, Dhanbad - JSPCB","13-12-2025 20:00:00",23.80569,86.44268,PM10,93,381,214
India,Jharkhand,Dhanbad,"Sardar Patel Nagar, Dhanbad - JSPCB","13-12-2025 20:00:00",23.80569,86.44268,NO2,67,70,69
India,Karnataka,Bengaluru,"RVCE-Mailasandra, Bengaluru - KSPCB","13-12-2025 20:00:00",12.921418,77.502466,NO2,24,30,30
India,Karnataka,Bengaluru,"RVCE-Mailasandra, Bengaluru - KSPCB","13-12-2025 20:00:00",12.921418,77.502466,SO2,5,6,6
India,Karnataka,Bengaluru,"Sanegurava Halli, Bengaluru - KSPCB","13-12-2025 20:00:00",12.990328,77.5431385,NO2,20,21,20
India,Karnataka,Bengaluru,"Sanegurava Halli, Bengaluru - KSPCB","13-12-2025 20:00:00",12.990328,77.5431385,SO2,7,7,7
India,Karnataka,Bengaluru,"BTM Layout, Bengaluru - CPCB","13-12-2025 20:00:00",12.9135218,77.5950804,OZONE,21,21,21
India,Karnataka,Bengaluru,"BWSSB Kadabesanahalli, Bengaluru - CPCB","13-12-2025 20:00:00",12.9352049,77.6814488,PM10,90,295,182
India,Jharkhand,Jorapokhar,"Tata Stadium, Jorapokhar - JSPCB","13-12-2025 20:00:00",23.707909,86.414670,OZONE,9,22,18
India,Karnataka,Belgaum,"Ramteerth Nagar, Belgaum - KSPCB","13-12-2025 20:00:00",15.888653,74.541751,PM2.5,NA,NA,NA
India,Karnataka,Bengaluru,"BTM Layout, Bengaluru - CPCB","13-12-2025 20:00:00",12.9135218,77.5950804,NO2,46,74,55
India,Karnataka,Bengaluru,"BTM Layout, Bengaluru - CPCB","13-12-2025 20:00:00",12.9135218,77.5950804,NH3,4,6,5
India,Karnataka,Bengaluru,"BTM Layout, Bengaluru - CPCB","13-12-2025 20:00:00",12.9135218,77.5950804,CO,42,50,46
India,Karnataka,Kalaburagi,"Mahatma Basaveswar Colony, Kalaburgi - KSPCB","13-12-2025 20:00:00",17.336318,76.847397,PM2.5,21,63,39
India,Jharkhand,Jorapokhar,"Tata Stadium, Jorapokhar - JSPCB","13-12-2025 20:00:00",23.707909,86.414670,PM10,NA,NA,NA
India,"Madhya Pradesh",Jabalpur,"Suhagi, Jabalpur - JMC","13-12-2025 20:00:00",23.218135,79.957770,PM2.5,55,305,147
India,"Madhya Pradesh",Jabalpur,"Suhagi, Jabalpur - JMC","13-12-2025 20:00:00",23.218135,79.957770,PM10,53,212,112
India,"Madhya Pradesh",Jabalpur,"Suhagi, Jabalpur - JMC","13-12-2025 20:00:00",23.218135,79.957770,NH3,1,5,3
India,"Madhya Pradesh",Jabalpur,"Suhagi, Jabalpur - JMC","13-12-2025 20:00:00",23.218135,79.957770,SO2,5,7,7
India,"Madhya Pradesh",Katni,"Gole Bazar, Katni - MPPCB","13-12-2025 20:00:00",23.50016,80.23284,NO2,24,67,51
India,"Madhya Pradesh",Katni,"Gole Bazar, Katni - MPPCB","13-12-2025 20:00:00",23.50016,80.23284,OZONE,10,96,73
India,"Madhya Pradesh",Maihar,"Sahilara, Maihar - KJS Cements","13-12-2025 20:00:00",24.2613009,80.7231783,PM2.5,9,74,28
India,"Madhya Pradesh",Gwalior,"Deen Dayal Nagar, Gwalior - MPPCB","13-12-2025 20:00:00",26.259242,78.216432,NH3,10,14,12
India,"Madhya Pradesh",Gwalior,"Deen Dayal Nagar, Gwalior - MPPCB","13-12-2025 20:00:00",26.259242,78.216432,CO,9,122,35
India,"Madhya Pradesh",Indore,"Airport Area, Indore - IMC","13-12-2025 20:00:00",22.7289,75.8076,SO2,25,26,26
India,"Madhya Pradesh",Indore,"Airport Area, Indore - IMC","13-12-2025 20:00:00",22.7289,75.8076,OZONE,4,10,8
India,"Madhya Pradesh",Indore,"Chhoti Gwaltoli, Indore - MPPCB","13-12-2025 20:00:00",22.4310,75.5213,SO2,6,35,13
India,"Madhya Pradesh",Indore,"Chhoti Gwaltoli, Indore - MPPCB","13-12-2025 20:00:00",22.4310,75.5213,CO,37,125,61
India,Karnataka,Yadgir,"Collector Office, Yadgir - KSPCB","13-12-2025 20:00:00",16.7602,77.1428,PM2.5,45,108,64
India,Kerala,Kannur,"Thavakkara, Kannur - Kerala PCB","13-12-2025 20:00:00",11.875000,75.373200,NH3,2,2,2
India,Kerala,Kannur,"Thavakkara, Kannur - Kerala PCB","13-12-2025 20:00:00",11.875000,75.373200,SO2,5,9,7
India,Kerala,Thiruvananthapuram,"Plammoodu, Thiruvananthapuram - Kerala PCB","13-12-2025 20:00:00",8.5149093,76.9435879,PM10,75,123,95
India,Kerala,Thiruvananthapuram,"Plammoodu, Thiruvananthapuram - Kerala PCB","13-12-2025 20:00:00",8.5149093,76.9435879,OZONE,8,33,16
India,"Madhya Pradesh",Damoh,"Shrivastav Colony, Damoh - MPPCB","13-12-2025 20:00:00",23.81748678,79.446246,PM2.5,11,34,22
India,"Madhya Pradesh",Damoh,"Shrivastav Colony, Damoh - MPPCB","13-12-2025 20:00:00",23.81748678,79.446246,CO,NA,NA,NA
India,"Madhya Pradesh",Dewas,"Bhopal Chauraha, Dewas - MPPCB","13-12-2025 20:00:00",22.9682591,76.064118,PM10,40,146,85
India,"Madhya Pradesh",Gwalior,"City Center, Gwalior - MPPCB","13-12-2025 20:00:00",26.203442,78.193251,PM10,74,185,132
India,"Madhya Pradesh",Gwalior,"City Center, Gwalior - MPPCB","13-12-2025 20:00:00",26.203442,78.193251,NH3,3,4,4
India,Karnataka,Mysuru,"Hebbal 1st Stage, Mysuru - KSPCB","13-12-2025 20:00:00",12.21041,76.37376,SO2,2,8,5
India,Karnataka,Shivamogga,"Vinoba Nagara, Shivamogga - KSPCB","13-12-2025 20:00:00",13.940000,75.555917,PM2.5,34,51,40
India,Karnataka,Shivamogga,"Vinoba Nagara, Shivamogga - KSPCB","13-12-2025 20:00:00",13.940000,75.555917,NO2,21,29,26
India,Karnataka,Shivamogga,"Vinoba Nagara, Shivamogga - KSPCB","13-12-2025 20:00:00",13.940000,75.555917,NH3,2,4,3
India,Karnataka,Shivamogga,"Vinoba Nagara, Shivamogga - KSPCB","13-12-2025 20:00:00",13.940000,75.555917,SO2,3,7,5
India,"Madhya Pradesh",Indore,"Regional Park, Indore - IMC","13-12-2025 20:00:00",22.6780,75.8559,PM10,14,119,53
India,"Madhya Pradesh",Jabalpur,"Govindh Bhavan Colony, Jabalpur - JMC","13-12-2025 20:00:00",23.163174,79.973061,PM2.5,30,52,39
India,"Madhya Pradesh",Jabalpur,"Govindh Bhavan Colony, Jabalpur - JMC","13-12-2025 20:00:00",23.163174,79.973061,CO,35,46,40
India,"Madhya Pradesh",Jabalpur,"Gupteshwar, Jabalpur - JMC","13-12-2025 20:00:00",23.142888,79.916147,PM10,52,142,78
India,"Madhya Pradesh",Bhopal,"Idgah Hills, Bhopal - MPPCB","13-12-2025 20:00:00",23.264759,77.381568,PM10,70,198,116
India,"Madhya Pradesh",Bhopal,"Idgah Hills, Bhopal - MPPCB","13-12-2025 20:00:00",23.264759,77.381568,NO2,17,77,35
India,"Madhya Pradesh",Bhopal,"Paryavaran Parisar, Bhopal - MPPCB","13-12-2025 20:00:00",23.210494,77.425409,PM10,60,300,155
India,Kerala,Thrissur,"Corporation Ground, Thrissur - Kerala PCB","13-12-2025 20:00:00",10.532400,76.215900,PM2.5,51,60,57
India,Kerala,Thrissur,"Corporation Ground, Thrissur - Kerala PCB","13-12-2025 20:00:00",10.532400,76.215900,SO2,1,1,1
India,Karnataka,Koppal,"Diwator Nagar, Koppal - KSPCB","13-12-2025 20:00:00",15.347630,76.181767,PM2.5,NA,NA,NA
India,Karnataka,Koppal,"Diwator Nagar, Koppal - KSPCB","13-12-2025 20:00:00",15.347630,76.181767,NH3,7,8,7
India,Maharashtra,Belapur,"CBD Belapur, Belapur - MPCB","13-12-2025 20:00:00",19.0243902,73.0406721,OZONE,7,70,58
India,Maharashtra,Bhiwandi,"Gokul Nagar, Bhiwandi - MPCB","13-12-2025 20:00:00",19.309073,73.057223,PM2.5,35,200,114
India,Maharashtra,Bhiwandi,"Gokul Nagar, Bhiwandi - MPCB","13-12-2025 20:00:00",19.309073,73.057223,PM10,63,166,129
India,Maharashtra,Bhiwandi,"Gokul Nagar, Bhiwandi - MPCB","13-12-2025 20:00:00",19.309073,73.057223,CO,14,53,23
India,Maharashtra,Bhiwandi,"Gokul Nagar, Bhiwandi - MPCB","13-12-2025 20:00:00",19.309073,73.057223,OZONE,13,92,68
India,Maharashtra,Boisar,"Khaira, Boisar - MPCB","13-12-2025 20:00:00",19.786089,72.757971,PM10,85,176,124
India,Maharashtra,Boisar,"Khaira, Boisar - MPCB","13-12-2025 20:00:00",19.786089,72.757971,SO2,NA,NA,NA
India,Maharashtra,Chandrapur,"Chauhan Colony, Chandrapur - MPCB","13-12-2025 20:00:00",19.962900,79.298714,PM2.5,16,81,45
India,"Madhya Pradesh",Mandideep,"Sector-D Industrial Area, Mandideep - MPPCB","13-12-2025 20:00:00",23.108440,77.511428,CO,11,105,35
India,"Madhya Pradesh",Mandideep,"Sector-D Industrial Area, Mandideep - MPPCB","13-12-2025 20:00:00",23.108440,77.511428,OZONE,3,44,36
India,"Madhya Pradesh",Pithampur,"Sector-2 Industrial Area, Pithampur - MPPCB","13-12-2025 20:00:00",22.624758,75.675238,NH3,2,3,2
India,"Madhya Pradesh",Pithampur,"Sector-2 Industrial Area, Pithampur - MPPCB","13-12-2025 20:00:00",22.624758,75.675238,SO2,11,21,15
India,"Madhya Pradesh",Sagar,"Civil Lines, Sagar - MPPCB","13-12-2025 20:00:00",23.838586,78.759431,SO2,5,25,10
India,"Madhya Pradesh",Sagar,"Deen Dayal Nagar, Sagar - MPPCB","13-12-2025 20:00:00",23.8640158,78.80289321,PM2.5,10,213,66
India,Maharashtra,Jalna,"Old MIDC, Jalna - MPCB","13-12-2025 20:00:00",19.854616,75.905894,OZONE,21,75,62
India,Maharashtra,Kalyan,"Khadakpada, Kalyan - MPCB","13-12-2025 20:00:00",19.25292,73.142019,NH3,NA,NA,NA
India,Maharashtra,Kalyan,"Pimpleshwar Mandir, Kalyan - MPCB","13-12-2025 20:00:00",19.192056,72.9585188,PM2.5,NA,NA,NA
India,Maharashtra,Kalyan,"Pimpleshwar Mandir, Kalyan - MPCB","13-12-2025 20:00:00",19.192056,72.9585188,NO2,15,38,26
India,Maharashtra,Kalyan,"Pimpleshwar Mandir, Kalyan - MPCB","13-12-2025 20:00:00",19.192056,72.9585188,SO2,11,41,18
India,Maharashtra,Kolhapur,"Shivaji University, Kolhapur - MPCB","13-12-2025 20:00:00",16.6870449,74.2505872,PM10,66,111,85
India,"Madhya Pradesh",Singrauli,"Suryakiran Bhawan NCL, Singrauli - MPPCB","13-12-2025 20:00:00",24.108970,82.645580,SO2,20,31,25
India,"Madhya Pradesh",Singrauli,"Suryakiran Bhawan NCL, Singrauli - MPPCB","13-12-2025 20:00:00",24.108970,82.645580,OZONE,1,39,18
India,Maharashtra,Ahmednagar,"Tarakpur, Ahmednagar - MPCB","13-12-2025 20:00:00",19.10122,74.73339,NH3,1,27,7
India,Maharashtra,Ahmednagar,"Tarakpur, Ahmednagar - MPCB","13-12-2025 20:00:00",19.10122,74.73339,SO2,7,140,25
India,Maharashtra,Akola,"Ramdaspeth, Akola - MPCB","13-12-2025 20:00:00",20.719516,77.000253,PM10,69,117,92
India,Maharashtra,Akola,"Ramdaspeth, Akola - MPCB","13-12-2025 20:00:00",20.719516,77.000253,CO,10,107,22
India,Maharashtra,Chandrapur,"Chauhan Colony, Chandrapur - MPCB","13-12-2025 20:00:00",19.962900,79.298714,CO,46,80,64
India,Maharashtra,Chandrapur,"MIDC Khutala, Chandrapur - MPCB","13-12-2025 20:00:00",19.9775302,79.2337086,PM2.5,34,162,82
India,Maharashtra,Chandrapur,"MIDC Khutala, Chandrapur - MPCB","13-12-2025 20:00:00",19.9775302,79.2337086,NO2,13,58,35
India,Maharashtra,Chandrapur,"MIDC Khutala, Chandrapur - MPCB","13-12-2025 20:00:00",19.9775302,79.2337086,NH3,3,19,10
India,Maharashtra,Chandrapur,"MIDC Khutala, Chandrapur - MPCB","13-12-2025 20:00:00",19.9775302,79.2337086,CO,34,42,39
India,Maharashtra,Amravati,"Shri Shivaji Science College, Amravati - MPCB","13-12-2025 20:00:00",20.939198,77.765701,PM2.5,27,156,68
India,Maharashtra,Amravati,"Shri Shivaji Science College, Amravati - MPCB","13-12-2025 20:00:00",20.939198,77.765701,NH3,1,19,5
India,Maharashtra,Amravati,"Shri Shivaji Science College, Amravati - MPCB","13-12-2025 20:00:00",20.939198,77.765701,SO2,NA,NA,NA
India,Maharashtra,Aurangabad,"Rachnakar Colony, Aurangabad - MPCB","13-12-2025 20:00:00",19.863756,75.321188,CO,16,87,25
India,Maharashtra,Badlapur,"Katrap, Badlapur - MPCB","13-12-2025 20:00:00",19.16485,73.23409,NO2,14,43,24
India,Maharashtra,Jalgaon,"Prabhat Colony, Jalgaon - MPCB","13-12-2025 20:00:00",21.001264,75.565602,PM2.5,73,331,166
India,Maharashtra,Jalgaon,"Prabhat Colony, Jalgaon - MPCB","13-12-2025 20:00:00",21.001264,75.565602,PM10,78,229,126
India,Maharashtra,Jalgaon,"Prabhat Colony, Jalgaon - MPCB","13-12-2025 20:00:00",21.001264,75.565602,CO,16,82,24
India,"Madhya Pradesh",Satna,"Bandhavgar Colony, Satna - Birla Cement","13-12-2025 20:00:00",24.58434363,80.8549414,PM2.5,45,50,47
India,Maharashtra,Kolhapur,"Sinchan Bhavan, Kolhapur - MPCB","13-12-2025 20:00:00",16.7143745,74.2426398,CO,27,111,39
India,Maharashtra,Latur,"Sawe Wadi, Latur - MPCB","13-12-2025 20:00:00",18.39963,76.57452,PM2.5,48,240,116
India,Maharashtra,Latur,"Sawe Wadi, Latur - MPCB","13-12-2025 20:00:00",18.39963,76.57452,NH3,6,41,15
India,Maharashtra,Malegaon,"Mahesh Nagar, Malegaon - MPCB","13-12-2025 20:00:00",20.555712,74.529236,NO2,13,99,39
India,Maharashtra,Malegaon,"Mahesh Nagar, Malegaon - MPCB","13-12-2025 20:00:00",20.555712,74.529236,NH3,1,24,4
India,Maharashtra,Malegaon,"Mahesh Nagar, Malegaon - MPCB","13-12-2025 20:00:00",20.555712,74.529236,CO,16,83,38
India,Maharashtra,Malegaon,"Mahesh Nagar, Malegaon - MPCB","13-12-2025 20:00:00",20.555712,74.529236,OZONE,11,88,57
India,Maharashtra,Mira-Bhayandar,"Bhayandar West, Mira-Bhayandar - MPCB","13-12-2025 20:00:00",19.296481,72.840923,PM2.5,56,80,67
India,Maharashtra,Mumbai,"Navy Nagar-Colaba, Mumbai - IITM","13-12-2025 20:00:00",18.897756,72.813320,PM2.5,70,195,146
India,Maharashtra,Mumbai,"Sewri, Mumbai - BMC","13-12-2025 20:00:00",19.000084,72.856730,PM2.5,1,84,20
India,Maharashtra,Mumbai,"Sewri, Mumbai - BMC","13-12-2025 20:00:00",19.000084,72.856730,PM10,28,76,52
India,Maharashtra,Mumbai,"Sewri, Mumbai - BMC","13-12-2025 20:00:00",19.000084,72.856730,OZONE,78,225,104
India,Maharashtra,Mumbai,"Shivaji Nagar, Mumbai - BMC","13-12-2025 20:00:00",19.060498,72.923356,PM2.5,102,294,195
India,Maharashtra,Mumbai,"Siddharth Nagar-Worli, Mumbai - IITM","13-12-2025 20:00:00",19.000083,72.813993,PM10,56,156,124
India,Maharashtra,Mumbai,"Siddharth Nagar-Worli, Mumbai - IITM","13-12-2025 20:00:00",19.000083,72.813993,NH3,5,11,8
India,Maharashtra,Mumbai,"Bandra Kurla Complex, Mumbai - MPCB","13-12-2025 20:00:00",19.065931,72.862131,PM10,113,273,150
India,Maharashtra,Mumbai,"Borivali East, Mumbai - MPCB","13-12-2025 20:00:00",19.2243333,72.8658113,PM10,71,105,82
India,Maharashtra,Mumbai,"Borivali East, Mumbai - MPCB","13-12-2025 20:00:00",19.2243333,72.8658113,CO,18,21,19
India,Maharashtra,Mumbai,"Borivali East, Mumbai - MPCB","13-12-2025 20:00:00",19.2243333,72.8658113,OZONE,12,14,13
India,Maharashtra,Mumbai,"Byculla, Mumbai - BMC","13-12-2025 20:00:00",18.9767,72.8380,NO2,73,162,117
India,Maharashtra,Nagpur,"Opp GPO Civil Lines, Nagpur - MPCB","13-12-2025 20:00:00",21.152875,79.0517531,PM10,62,200,118
India,Maharashtra,Nagpur,"Opp GPO Civil Lines, Nagpur - MPCB","13-12-2025 20:00:00",21.152875,79.0517531,NH3,2,25,9
India,Maharashtra,Nagpur,"Ram Nagar, Nagpur - MPCB","13-12-2025 20:00:00",21.143383,79.048912,PM10,64,158,109
India,Maharashtra,Nanded,"Sneh Nagar, Nanded - MPCB","13-12-2025 20:00:00",19.173852,77.296291,NH3,3,5,4
India,Maharashtra,Nanded,"Sneh Nagar, Nanded - MPCB","13-12-2025 20:00:00",19.173852,77.296291,OZONE,1,103,84
India,Maharashtra,Mumbai,"Sion, Mumbai - MPCB","13-12-2025 20:00:00",19.047000,72.874600,SO2,16,17,17
India,Maharashtra,Mumbai,"Vile Parle West, Mumbai - MPCB","13-12-2025 20:00:00",19.10861,72.83622,PM2.5,84,260,143
India,Maharashtra,Nagpur,"Ambazari, Nagpur - MPCB","13-12-2025 20:00:00",21.121801,79.04952,PM2.5,68,198,110
India,Maharashtra,Nagpur,"Ambazari, Nagpur - MPCB","13-12-2025 20:00:00",21.121801,79.04952,PM10,76,128,97
India,Maharashtra,Nagpur,"Ambazari, Nagpur - MPCB","13-12-2025 20:00:00",21.121801,79.04952,CO,3,97,18
India,Maharashtra,Mumbai,"Kurla, Mumbai - MPCB","13-12-2025 20:00:00",19.0863,72.8888,NO2,6,9,7
India,Maharashtra,Mumbai,"Mazgaon, Mumbai - IITM","13-12-2025 20:00:00",18.96702,72.84214,PM2.5,46,103,80
India,Maharashtra,Mumbai,"Mazgaon, Mumbai - IITM","13-12-2025 20:00:00",18.96702,72.84214,NO2,NA,NA,NA
India,Maharashtra,Mumbai,"Mindspace-Malad West, Mumbai - MPCB","13-12-2025 20:00:00",19.1878657,72.8304069,SO2,6,33,15
India,Maharashtra,Mumbai,"Kherwadi_Bandra East, Mumbai - MPCB","13-12-2025 20:00:00",19.0632143,72.8456324,PM10,108,183,138
India,Maharashtra,Mumbai,"Khindipada-Bhandup West, Mumbai - IITM","13-12-2025 20:00:00",19.1653323,72.922099,PM10,34,116,81
India,Maharashtra,Mumbai,"Khindipada-Bhandup West, Mumbai - IITM","13-12-2025 20:00:00",19.1653323,72.922099,SO2,6,27,13
India,Maharashtra,Mumbai,"Chembur, Mumbai - MPCB","13-12-2025 20:00:00",19.0364585,72.8954371,PM10,114,142,128
India,Maharashtra,Mumbai,"Chembur, Mumbai - MPCB","13-12-2025 20:00:00",19.0364585,72.8954371,CO,28,80,39
India,Maharashtra,Mumbai,"Ghatkopar, Mumbai - BMC","13-12-2025 20:00:00",19.083694,72.920967,NO2,NA,NA,NA
India,Maharashtra,Mumbai,"Kandivali West, Mumbai - BMC","13-12-2025 20:00:00",19.215859,72.831718,PM2.5,30,159,69
India,Maharashtra,Mumbai,"Kandivali West, Mumbai - BMC","13-12-2025 20:00:00",19.215859,72.831718,SO2,4,15,7
India,Maharashtra,Mumbai,"Kandivali West, Mumbai - BMC","13-12-2025 20:00:00",19.215859,72.831718,CO,10,98,26
India,Maharashtra,Pune,"Bhumkar Nagar, Pune - IITM","13-12-2025 20:00:00",18.605770,73.749976,PM10,169,318,238
India,Maharashtra,Pune,"Hadapsar, Pune - IITM","13-12-2025 20:00:00",18.501793,73.927532,OZONE,14,61,46
India,Maharashtra,Pune,"Katraj Dairy, Pune - MPCB","13-12-2025 20:00:00",18.454450,73.854155,NO2,22,97,60
India,Maharashtra,Pune,"Katraj Dairy, Pune - MPCB","13-12-2025 20:00:00",18.454450,73.854155,OZONE,4,82,60
India,Maharashtra,Pune,"Mhada Colony, Pune - IITM","13-12-2025 20:00:00",18.573040,73.927715,PM10,126,269,203
India,Maharashtra,Pune,"Panchawati_Pashan, Pune - IITM","13-12-2025 20:00:00",18.536457,73.805454,PM2.5,49,287,147
India,Maharashtra,Pune,"Panchawati_Pashan, Pune - IITM","13-12-2025 20:00:00",18.536457,73.805454,PM10,83,180,125
India,Maharashtra,Pune,"Panchawati_Pashan, Pune - IITM","13-12-2025 20:00:00",18.536457,73.805454,OZONE,2,44,36
India,Maharashtra,Pune,"Revenue Colony-Shivajinagar, Pune - IITM","13-12-2025 20:00:00",18.530085,73.849598,PM2.5,74,309,203
India,Maharashtra,Pune,"Revenue Colony-Shivajinagar, Pune - IITM","13-12-2025 20:00:00",18.530085,73.849598,PM10,109,243,157
India,Maharashtra,Solapur,"Ratandeep Housing Society, Solapur - MPCB","13-12-2025 20:00:00",17.65439,75.90649,NO2,19,158,76
India,Maharashtra,Thane,"Kasarvadavali, Thane - MPCB","13-12-2025 20:00:00",19.26777,72.97182,PM2.5,37,83,64
India,Maharashtra,Thane,"Kasarvadavali, Thane - MPCB","13-12-2025 20:00:00",19.26777,72.97182,SO2,3,15,6
India,Maharashtra,Thane,"Kasarvadavali, Thane - MPCB","13-12-2025 20:00:00",19.26777,72.97182,CO,8,57,20
India,Maharashtra,Thane,"Upvan Fort, Thane - MPCB","13-12-2025 20:00:00",19.222279,72.957979,PM10,72,128,90
India,Maharashtra,Thane,"Upvan Fort, Thane - MPCB","13-12-2025 20:00:00",19.222279,72.957979,NH3,3,3,3
India,Maharashtra,Ulhasnagar,"Sidhi Vinayak Nagar, Ulhasnagar - MPCB","13-12-2025 20:00:00",19.235581,73.159121,NO2,16,36,25
India,Maharashtra,Pimpri-Chinchwad,"Gavalinagar, Pimpri Chinchwad - MPCB","13-12-2025 20:00:00",18.63673,73.82487,SO2,1,8,4
India,Maharashtra,Pimpri-Chinchwad,"Gavalinagar, Pimpri Chinchwad - MPCB","13-12-2025 20:00:00",18.63673,73.82487,CO,22,140,46
India,Maharashtra,Pimpri-Chinchwad,"Park Street Wakad, Pimpri Chinchwad - MPCB","13-12-2025 20:00:00",18.59051,73.77946,PM2.5,37,332,214
India,Maharashtra,Pimpri-Chinchwad,"Park Street Wakad, Pimpri Chinchwad - MPCB","13-12-2025 20:00:00",18.59051,73.77946,PM10,81,426,230
India,Maharashtra,Pimpri-Chinchwad,"Park Street Wakad, Pimpri Chinchwad - MPCB","13-12-2025 20:00:00",18.59051,73.77946,OZONE,1,126,77
India,Maharashtra,Pimpri-Chinchwad,"Thergaon, Pimpri Chinchwad - MPCB","13-12-2025 20:00:00",18.616318,73.765797,PM2.5,51,406,255
India,Maharashtra,Pimpri-Chinchwad,"Thergaon, Pimpri Chinchwad - MPCB","13-12-2025 20:00:00",18.616318,73.765797,PM10,110,478,267
India,Maharashtra,Pune,"Revenue Colony-Shivajinagar, Pune - IITM","13-12-2025 20:00:00",18.530085,73.849598,CO,54,161,79
India,Maharashtra,Sangli,"Vijay Nagar, Sangli - MPCB","13-12-2025 20:00:00"," 16.5038",74.3623,PM2.5,76,305,206
India,Maharashtra,Sangli,"Vijay Nagar, Sangli - MPCB","13-12-2025 20:00:00"," 16.5038",74.3623,PM10,100,401,185
India,Maharashtra,Solapur,"Dnyaneshwar Nagar, Solapur - MPCB","13-12-2025 20:00:00",17.6336264,75.9132495,NO2,11,131,40
India,Maharashtra,Nashik,"Gangapur Road, Nashik - MPCB","13-12-2025 20:00:00",20.0073285,73.7762427,NH3,3,3,3
India,Maharashtra,Nashik,"Hirawadi, Nashik - MPCB","13-12-2025 20:00:00",20.021503,73.813844,PM2.5,70,137,103
India,Maharashtra,Nashik,"Hirawadi, Nashik - MPCB","13-12-2025 20:00:00",20.021503,73.813844,NH3,1,19,4
India,Maharashtra,Nashik,"Hirawadi, Nashik - MPCB","13-12-2025 20:00:00",20.021503,73.813844,SO2,2,40,10
India,Maharashtra,"Navi Mumbai","Kopripada-Vashi, Navi Mumbai - MPCB","13-12-2025 20:00:00",19.090337,73.014232,SO2,21,34,25
India,Maharashtra,"Navi Mumbai","Kopripada-Vashi, Navi Mumbai - MPCB","13-12-2025 20:00:00",19.090337,73.014232,OZONE,1,90,58
India,Maharashtra,"Navi Mumbai","Sanpada, Navi Mumbai - MPCB","13-12-2025 20:00:00",19.0575752,73.0151367,NO2,1,36,16
India,Maharashtra,Ulhasnagar,"Sidhi Vinayak Nagar, Ulhasnagar - MPCB","13-12-2025 20:00:00",19.235581,73.159121,OZONE,9,98,68
India,Maharashtra,Virar,"Bolinj, Virar - MPCB","13-12-2025 20:00:00",19.4458210,72.7988231,PM2.5,60,300,141
India,Maharashtra,"Navi Mumbai","Sector-2E Kalamboli, Navi Mumbai - MPCB","13-12-2025 20:00:00",19.02579,73.10297,PM10,44,171,115
India,Maharashtra,"Navi Mumbai","Tondare-Taloja, Navi Mumbai - MPCB","13-12-2025 20:00:00",19.0630,73.1209,PM10,68,149,111
India,Odisha,Bhubaneswar,"Lingraj Mandir, Bhubaneswar - OSPCB","13-12-2025 20:00:00",20.240790,85.836784,CO,22,104,60
India,Odisha,Bhubaneswar,"Lingraj Mandir, Bhubaneswar - OSPCB","13-12-2025 20:00:00",20.240790,85.836784,OZONE,3,306,190
India,Odisha,Bhubaneswar,"Patia, Bhubaneswar - OSPCB","13-12-2025 20:00:00",20.34652,85.81630,OZONE,3,211,122
India,Odisha,Bileipada,"Tata Township, Bileipada - OSPCB","13-12-2025 20:00:00",22.06156703,85.47409613,NO2,6,7,7
India,Odisha,Brajrajnagar,"GM Office, Brajrajnagar - OSPCB","13-12-2025 20:00:00",21.8004996,83.8396977,PM10,59,198,92
India,Odisha,Brajrajnagar,"GM Office, Brajrajnagar - OSPCB","13-12-2025 20:00:00",21.8004996,83.8396977,NO2,23,23,23
India,Odisha,Brajrajnagar,"GM Office, Brajrajnagar - OSPCB","13-12-2025 20:00:00",21.8004996,83.8396977,NH3,12,12,12
India,Odisha,Byasanagar,"Ferro Chrome Colony, Byasanagar - OSPCB","13-12-2025 20:00:00",20.94185,86.11510,PM2.5,NA,NA,NA
India,Punjab,Patiala,"Model Town, Patiala - PPCB","13-12-2025 20:00:00",30.349388,76.366642,PM2.5,96,252,168
India,Punjab,Patiala,"Model Town, Patiala - PPCB","13-12-2025 20:00:00",30.349388,76.366642,NO2,16,19,17
India,Rajasthan,Ajmer,"Civil Lines,  Ajmer - RSPCB","13-12-2025 20:00:00",26.470859,74.646594,PM2.5,59,98,80
India,Rajasthan,Alwar,"Moti Doongri, Alwar - RSPCB","13-12-2025 20:00:00",27.554793,76.611536,PM2.5,42,85,64
India,Rajasthan,Alwar,"Moti Doongri, Alwar - RSPCB","13-12-2025 20:00:00",27.554793,76.611536,NO2,50,82,67
India,Rajasthan,Alwar,"Moti Doongri, Alwar - RSPCB","13-12-2025 20:00:00",27.554793,76.611536,NH3,10,17,14
India,Rajasthan,Banswara,"Rati Talai, Banswara - RSPCB","13-12-2025 20:00:00",23.555190,74.440010,PM2.5,36,196,87
India,Rajasthan,Banswara,"Rati Talai, Banswara - RSPCB","13-12-2025 20:00:00",23.555190,74.440010,OZONE,6,137,88
India,Odisha,Rairangpur,"Divisional Forest Office, Rairangpur - OSPCB","13-12-2025 20:00:00",22.265816,86.174829,CO,42,88,61
India,Odisha,Rourkela,"Fertilizer Township, Rourkela - OSPCB","13-12-2025 20:00:00",22.18972222,84.86277778,NO2,11,11,11
India,Odisha,Rourkela,"Fertilizer Township, Rourkela - OSPCB","13-12-2025 20:00:00",22.18972222,84.86277778,SO2,8,12,9
India,Odisha,Rourkela,"Fertilizer Township, Rourkela - OSPCB","13-12-2025 20:00:00",22.18972222,84.86277778,CO,18,30,24
India,Odisha,Rourkela,"Raghunathpali, Rourkela - OSPCB","13-12-2025 20:00:00",22.220833,84.809444,PM10,104,188,136
India,Odisha,Rourkela,"Raghunathpali, Rourkela - OSPCB","13-12-2025 20:00:00",22.220833,84.809444,SO2,4,6,5
India,Odisha,Rourkela,"Sector-2, Rourkela - OSPCB","13-12-2025 20:00:00",22.24500000,84.88111111,PM2.5,85,117,96
India,Maharashtra,Virar,"Bolinj, Virar - MPCB","13-12-2025 20:00:00",19.4458210,72.7988231,OZONE,1,98,83
India,Meghalaya,Shillong,"Lumpyngngad, Shillong - Meghalaya PCB","13-12-2025 20:00:00",25.5586,91.8985,PM10,1,57,14
India,Meghalaya,Shillong,"Lumpyngngad, Shillong - Meghalaya PCB","13-12-2025 20:00:00",25.5586,91.8985,CO,1,12,7
India,Mizoram,Aizawl,"Sikulpuikawn, Aizawl - Mizoram PCB","13-12-2025 20:00:00",23.7176342,92.7192841,SO2,13,14,14
India,Odisha,Angul,"Hakimapada, Angul - OSPCB","13-12-2025 20:00:00",20.832874,85.104082,PM10,103,244,148
India,Punjab,Bathinda,"Hardev Nagar, Bathinda - PPCB","13-12-2025 20:00:00",30.233011,74.907758,SO2,8,24,17
India,Punjab,Jalandhar,"Civil Line, Jalandhar - PPCB","13-12-2025 20:00:00",31.321907,75.578914,PM2.5,66,128,88
India,Punjab,Khanna,"Kalal Majra, Khanna - PPCB","13-12-2025 20:00:00","30.736056 ",76.209694,NH3,7,8,7
India,Punjab,"Mandi Gobindgarh","RIMT University, Mandi Gobindgarh - PPCB","13-12-2025 20:00:00",30.649961,76.331442,PM10,78,159,112
India,Odisha,Cuttack,"CDA Area, Cuttack - OSPCB","13-12-2025 20:00:00","20.48891     ","85.84768     ",OZONE,4,246,143
India,Odisha,Keonjhar,"Jagamohanpur, Keonjhar - OSPCB","13-12-2025 20:00:00",21.643900,85.599355,PM2.5,51,93,71
India,Odisha,Keonjhar,"Jagamohanpur, Keonjhar - OSPCB","13-12-2025 20:00:00",21.643900,85.599355,NO2,34,72,46
India,Odisha,Rairangpur,"Divisional Forest Office, Rairangpur - OSPCB","13-12-2025 20:00:00",22.265816,86.174829,PM10,101,163,128
India,Odisha,Barbil,"Forest Office, Barbil - OSPCB","13-12-2025 20:00:00",22.1166054,85.3945546,PM10,97,273,155
India,Odisha,Barbil,"Forest Office, Barbil - OSPCB","13-12-2025 20:00:00",22.1166054,85.3945546,NO2,20,74,32
India,Odisha,Barbil,"Forest Office, Barbil - OSPCB","13-12-2025 20:00:00",22.1166054,85.3945546,SO2,3,46,14
India,Odisha,Barbil,"Forest Office, Barbil - OSPCB","13-12-2025 20:00:00",22.1166054,85.3945546,OZONE,4,69,42
India,Puducherry,Puducherry,"Jawahar Nagar, Puducherry - PPCC","13-12-2025 20:00:00",11.9309,79.8027,PM2.5,47,146,94
India,Puducherry,Puducherry,"Jawahar Nagar, Puducherry - PPCC","13-12-2025 20:00:00",11.9309,79.8027,NH3,1,3,2
India,Puducherry,Puducherry,"Jawahar Nagar, Puducherry - PPCC","13-12-2025 20:00:00",11.9309,79.8027,CO,20,38,23
India,Puducherry,Puducherry,"Jawahar Nagar, Puducherry - PPCC","13-12-2025 20:00:00",11.9309,79.8027,OZONE,45,91,77
India,Odisha,Suakati,"OMC Colony, Suakati - OSPCB","13-12-2025 20:00:00",21.606865,85.510538,OZONE,18,20,19
India,Odisha,Talcher,"Talcher Coalfields,Talcher - OSPCB","13-12-2025 20:00:00",20.9360711,85.1707021,NO2,61,102,82
India,Rajasthan,Bhiwadi,"RIICO Ind. Area III, Bhiwadi - RSPCB","13-12-2025 20:00:00",28.194909,76.862296,SO2,17,27,21
India,Rajasthan,Bhiwadi,"RIICO Ind. Area III, Bhiwadi - RSPCB","13-12-2025 20:00:00",28.194909,76.862296,CO,56,111,73
India,Rajasthan,Bhiwadi,"RIICO Ind. Area III, Bhiwadi - RSPCB","13-12-2025 20:00:00",28.194909,76.862296,OZONE,4,48,27
India,Rajasthan,Bhiwadi,"Vasundhara Nagar_UIT, Bhiwadi - RSPCB","13-12-2025 20:00:00",28.207266,76.829265,SO2,2,68,22
India,Rajasthan,Bhiwadi,"Vasundhara Nagar_UIT, Bhiwadi - RSPCB","13-12-2025 20:00:00",28.207266,76.829265,OZONE,3,176,91
India,Rajasthan,Bikaner,"MM Ground, Bikaner - RSPCB","13-12-2025 20:00:00",28.018792,73.292658,PM10,68,459,182
India,Rajasthan,Bikaner,"MM Ground, Bikaner - RSPCB","13-12-2025 20:00:00",28.018792,73.292658,CO,19,170,76
India,Rajasthan,Bundi,"New Colony, Bundi - RSPCB","13-12-2025 20:00:00",25.435774,75.644272,NH3,1,4,2
India,Rajasthan,Bundi,"New Colony, Bundi - RSPCB","13-12-2025 20:00:00",25.435774,75.644272,SO2,6,24,9
India,Rajasthan,Bundi,"New Colony, Bundi - RSPCB","13-12-2025 20:00:00",25.435774,75.644272,CO,21,101,51
India,Rajasthan,Jaisalmer,"Sadar Bazar, Jaisalmer - RSPCB","13-12-2025 20:00:00",26.912329,70.909168,OZONE,1,62,43
India,Rajasthan,Jalore,"Mudtra Sili, Jalore - RSPCB","13-12-2025 20:00:00",25.344694,72.626208,PM2.5,32,316,140
India,Rajasthan,Jhalawar,"Rajlaxmi Nagar, Jhalawar - RSPCB","13-12-2025 20:00:00",24.588397,76.172782,PM10,56,239,103
India,Rajasthan,Jhalawar,"Rajlaxmi Nagar, Jhalawar - RSPCB","13-12-2025 20:00:00",24.588397,76.172782,NH3,4,5,4
India,Rajasthan,Jhunjhunu,"Indra Nagar, Jhunjhunu - RSPCB","13-12-2025 20:00:00",28.108988,75.386577,PM10,96,402,185
India,Rajasthan,Jhunjhunu,"Indra Nagar, Jhunjhunu - RSPCB","13-12-2025 20:00:00",28.108988,75.386577,SO2,4,10,7
India,Rajasthan,Jhunjhunu,"Indra Nagar, Jhunjhunu - RSPCB","13-12-2025 20:00:00",28.108988,75.386577,CO,18,104,30
India,Rajasthan,Jodhpur,"Mandor, Jodhpur - RSPCB","13-12-2025 20:00:00",26.358805,73.047444,CO,25,60,37
India,Rajasthan,Jodhpur,"Samrat Ashok Udhyan, Jodhpur - RSPCB","13-12-2025 20:00:00",26.253384,72.976571,PM10,67,453,185
India,Rajasthan,Jodhpur,"Samrat Ashok Udhyan, Jodhpur - RSPCB","13-12-2025 20:00:00",26.253384,72.976571,NH3,1,18,6
India,Rajasthan,Jodhpur,"Samrat Ashok Udhyan, Jodhpur - RSPCB","13-12-2025 20:00:00",26.253384,72.976571,SO2,1,31,8
India,Rajasthan,Karauli,"Satyawati Vihar, Karauli - RSPCB","13-12-2025 20:00:00",26.506177,77.025989,NH3,12,20,15
India,Rajasthan,Karauli,"Satyawati Vihar, Karauli - RSPCB","13-12-2025 20:00:00",26.506177,77.025989,CO,41,108,58
India,Rajasthan,Kota,"Dhanmandi, Kota - RSPCB","13-12-2025 20:00:00",25.164090,75.858137,NH3,2,10,6
India,Rajasthan,Barmer,"Railway Colony, Barmer - RSPCB","13-12-2025 20:00:00",25.747299,71.393989,CO,10,118,41
India,Rajasthan,Bhilwara,"Pratap Nagar, Bhilwara - RSPCB","13-12-2025 20:00:00",25.339605,74.618883,NO2,24,108,56
India,Rajasthan,Bhilwara,"Pratap Nagar, Bhilwara - RSPCB","13-12-2025 20:00:00",25.339605,74.618883,NH3,10,44,19
India,Rajasthan,Bhilwara,"Pratap Nagar, Bhilwara - RSPCB","13-12-2025 20:00:00",25.339605,74.618883,SO2,1,61,23
India,Rajasthan,Bhilwara,"Pratap Nagar, Bhilwara - RSPCB","13-12-2025 20:00:00",25.339605,74.618883,OZONE,1,50,32
India,Rajasthan,Bhiwadi,"RIICO Ind. Area III, Bhiwadi - RSPCB","13-12-2025 20:00:00",28.194909,76.862296,PM2.5,303,432,368
India,Rajasthan,Hanumangarh,"Housing Board, Hanumangarh - RSPCB","13-12-2025 20:00:00",29.610750,74.283608,OZONE,4,64,44
India,Rajasthan,Jaipur,"Adarsh Nagar, Jaipur - RSPCB","13-12-2025 20:00:00",26.902909,75.836858,NH3,13,53,33
India,Rajasthan,Jaipur,"Adarsh Nagar, Jaipur - RSPCB","13-12-2025 20:00:00",26.902909,75.836858,CO,28,117,39
India,Rajasthan,Jaipur,"Mansarovar Sector-12, Jaipur - RSPCB","13-12-2025 20:00:00",26.843698,75.766894,PM2.5,37,342,227
India,Rajasthan,Jaipur,"Mansarovar Sector-12, Jaipur - RSPCB","13-12-2025 20:00:00",26.843698,75.766894,PM10,107,418,256
India,Rajasthan,Jaipur,"Mansarovar Sector-12, Jaipur - RSPCB","13-12-2025 20:00:00",26.843698,75.766894,CO,6,145,40
India,Rajasthan,Chittorgarh,"Shastri Nagar, Chittorgarh - RSPCB","13-12-2025 20:00:00",24.892047,74.623527,NO2,18,103,45
India,Rajasthan,Churu,"Subash Chowk, Churu - RSPCB","13-12-2025 20:00:00",28.296139,74.961696,PM10,126,462,206
India,Rajasthan,Churu,"Subash Chowk, Churu - RSPCB","13-12-2025 20:00:00",28.296139,74.961696,NO2,15,86,45
India,Rajasthan,Dausa,"Khatikan Mohalla, Dausa - RSPCB","13-12-2025 20:00:00",26.895552,76.334753,OZONE,5,120,82
India,Rajasthan,Jodhpur,"Collectorate, Jodhpur - RSPCB","13-12-2025 20:00:00",26.268249,73.0193853,NO2,8,37,19
India,Rajasthan,Jodhpur,"Collectorate, Jodhpur - RSPCB","13-12-2025 20:00:00",26.268249,73.0193853,CO,5,161,40
India,Rajasthan,Jodhpur,"Digari Kalan, Jodhpur - RSPCB","13-12-2025 20:00:00",26.295810,73.082283,NO2,8,101,48
India,Rajasthan,Jaipur,"Police Commissionerate, Jaipur - RSPCB","13-12-2025 20:00:00",26.9164092,75.7994901,OZONE,12,51,32
India,Rajasthan,Jaipur,"RIICO Sitapura, Jaipur - RSPCB","13-12-2025 20:00:00",26.786682,75.827928,OZONE,42,144,100
India,Rajasthan,Baran,"Bamboliya, Baran - RSPCB","13-12-2025 20:00:00",25.106006,76.469948,SO2,6,18,11
India,Rajasthan,Sirohi,"Vedhaynath Colony, Sirohi - RSPCB","13-12-2025 20:00:00",24.885261,72.857549,NH3,1,4,3
India,Rajasthan,"Sri Ganganagar","Old City, Sri Ganganagar - RSPCB","13-12-2025 20:00:00",29.931624,73.864511,NO2,51,119,89
India,Rajasthan,Tonk,"Shastri Nagar, Tonk - RSPCB","13-12-2025 20:00:00",26.159933,75.780517,NO2,14,95,46
India,Rajasthan,Tonk,"Shastri Nagar, Tonk - RSPCB","13-12-2025 20:00:00",26.159933,75.780517,SO2,1,5,3
India,Rajasthan,Tonk,"Shastri Nagar, Tonk - RSPCB","13-12-2025 20:00:00",26.159933,75.780517,CO,14,105,51
India,Rajasthan,Udaipur,"Ashok Nagar, Udaipur - RSPCB","13-12-2025 20:00:00",24.5886166,73.6321397,PM2.5,54,332,133
India,Rajasthan,Udaipur,"Ashok Nagar, Udaipur - RSPCB","13-12-2025 20:00:00",24.5886166,73.6321397,NO2,8,76,39
India,Rajasthan,Udaipur,"Ashok Nagar, Udaipur - RSPCB","13-12-2025 20:00:00",24.5886166,73.6321397,CO,10,128,61
India,TamilNadu,Chennai,"Royapuram, Chennai - TNPCB","13-12-2025 20:00:00",13.1036,80.2909,NO2,12,49,20
India,TamilNadu,Chennai,"Royapuram, Chennai - TNPCB","13-12-2025 20:00:00",13.1036,80.2909,NH3,5,10,8
India,TamilNadu,Chennai,"Royapuram, Chennai - TNPCB","13-12-2025 20:00:00",13.1036,80.2909,OZONE,17,19,17
India,TamilNadu,Coimbatore,"PSG College of Arts and Science, Coimbatore - TNPCB","13-12-2025 20:00:00",11.0328,77.0349,PM10,86,169,115
India,TamilNadu,Coimbatore,"SIDCO Kurichi, Coimbatore - TNPCB","13-12-2025 20:00:00",10.942451,76.978996,PM10,67,144,93
India,TamilNadu,Coimbatore,"SIDCO Kurichi, Coimbatore - TNPCB","13-12-2025 20:00:00",10.942451,76.978996,NO2,NA,NA,NA
India,TamilNadu,Cuddalore,"Kudikadu, Cuddalore - TNPCB","13-12-2025 20:00:00",11.6829898,79.7532099,NO2,19,19,19
India,TamilNadu,Madurai,"Uchapatti, Madurai - TNPCB","13-12-2025 20:00:00",9.865935,78.022669,CO,6,8,7
India,TamilNadu,Madurai,"Uchapatti, Madurai - TNPCB","13-12-2025 20:00:00",9.865935,78.022669,OZONE,1,1,1
India,TamilNadu,Nagapattinam,"Velippalayam, Nagapattinam - TNPCB","13-12-2025 20:00:00",10.798548,79.838212,PM10,52,131,86
India,TamilNadu,Nagapattinam,"Velippalayam, Nagapattinam - TNPCB","13-12-2025 20:00:00",10.798548,79.838212,NO2,6,6,6
India,TamilNadu,Ooty,"Bombay Castel, Ooty - TNPCB","13-12-2025 20:00:00",11.4068288,76.7138973,OZONE,5,6,5
India,TamilNadu,Perundurai,"SIPCOT Industrial Park, Perundurai - TNPCB","13-12-2025 20:00:00",11.258242,77.552761,NO2,12,14,13
India,Rajasthan,Pratapgarh,"Pragati Nagar, Pratapgarh - RSPCB","13-12-2025 20:00:00",24.041198,74.780702,CO,20,44,26
India,Rajasthan,Pratapgarh,"Pragati Nagar, Pratapgarh - RSPCB","13-12-2025 20:00:00",24.041198,74.780702,OZONE,30,125,99
India,Rajasthan,Rajsamand,"Dhoinda, Rajsamand - RSPCB","13-12-2025 20:00:00",25.036360,73.883502,SO2,3,30,11
India,Rajasthan,"Sawai Madhopur","Sahu Nagar, Sawai Madhopur - RSPCB","13-12-2025 20:00:00",26.031443,76.359327,SO2,1,14,4
India,TamilNadu,Cuddalore,"Semmandalam, Cuddalore - TNPCB","13-12-2025 20:00:00",11.7637683,79.7499835,OZONE,1,5,2
India,TamilNadu,Dindigul,"Mendonsa Colony, Dindigul - TNPCB","13-12-2025 20:00:00",10.358535,77.984321,NH3,NA,NA,NA
India,TamilNadu,Gummidipoondi,"Anthoni Pillai Nagar, Gummidipoondi - TNPCB","13-12-2025 20:00:00",13.4127,80.1081,PM2.5,88,414,242
India,TamilNadu,Chennai,"Kodungaiyur, Chennai - TNPCB","13-12-2025 20:00:00",13.1278,80.2642,SO2,6,13,9
India,TamilNadu,Chennai,"Manali Village, Chennai - TNPCB","13-12-2025 20:00:00",13.1662,80.2584,NH3,1,2,2
India,TamilNadu,Chennai,"Manali, Chennai - CPCB","13-12-2025 20:00:00",13.164544,80.26285,PM2.5,19,173,87
India,TamilNadu,Chennai,"Manali, Chennai - CPCB","13-12-2025 20:00:00",13.164544,80.26285,OZONE,10,13,11
India,Rajasthan,Kota,"Nayapura, Kota - RSPCB","13-12-2025 20:00:00",25.196024,75.855668,OZONE,3,137,81
India,Rajasthan,Kota,"Shrinath Puram, Kota - RSPCB","13-12-2025 20:00:00",25.14389,75.821256,PM10,66,168,114
India,Rajasthan,Nagaur,"Karni Colony, Nagaur - RSPCB","13-12-2025 20:00:00",27.213494,73.734444,PM2.5,28,375,136
India,Rajasthan,Sikar,"Radhakishan Pura, Sikar - RSPCB","13-12-2025 20:00:00",27.608912,75.153302,SO2,3,11,6
India,Rajasthan,Sikar,"Radhakishan Pura, Sikar - RSPCB","13-12-2025 20:00:00",27.608912,75.153302,CO,16,114,61
India,TamilNadu,Chennai,"Kodungaiyur, Chennai - TNPCB","13-12-2025 20:00:00",13.1278,80.2642,PM10,91,201,138
India,TamilNadu,Pudukottai,"SIPCOT Nathampannai, Pudukottai - TNPCB","13-12-2025 20:00:00",10.423417,78.784889,NO2,2,9,5
India,TamilNadu,Salem,"Sona College of Technology, Salem - TNPCB","13-12-2025 20:00:00",11.679111,78.125052,PM2.5,41,176,112
India,TamilNadu,Salem,"Sona College of Technology, Salem - TNPCB","13-12-2025 20:00:00",11.679111,78.125052,SO2,20,22,21
India,TamilNadu,Salem,"Sona College of Technology, Salem - TNPCB","13-12-2025 20:00:00",11.679111,78.125052,OZONE,4,5,5
India,TamilNadu,Thanjavur,"Parisutham Nagar, Thanjavur - TNPCB","13-12-2025 20:00:00",10.7654824,79.1389968,PM2.5,55,76,65
India,TamilNadu,Thanjavur,"Parisutham Nagar, Thanjavur - TNPCB","13-12-2025 20:00:00",10.7654824,79.1389968,NO2,3,3,3
India,TamilNadu,Thoothukudi,"Meelavittan, Thoothukudi - TNPCB","13-12-2025 20:00:00","8.816428 ",78.099039,PM10,61,107,80
India,TamilNadu,Tirunelveli,"Municipal Corporation Office, Tirunelveli - TNPCB","13-12-2025 20:00:00",8.728442,77.6962,OZONE,6,7,6
India,TamilNadu,Tirupur,"Kumaran College, Tirupur - TNPCB","13-12-2025 20:00:00",11.0973603,77.3228673,CO,24,41,24
India,TamilNadu,Virudhunagar,"Collectorate Office, Virudhunagar - TNPCB","13-12-2025 20:00:00",9.559382,77.948828,PM2.5,87,316,116
India,Telangana,Hyderabad,"Bollaram Industrial Area, Hyderabad - TSPCB","13-12-2025 20:00:00",17.540891,78.358528,PM10,70,149,116
India,Telangana,Hyderabad,"Central University, Hyderabad - TSPCB","13-12-2025 20:00:00",17.460103,78.334361,PM10,52,131,104
India,Telangana,Hyderabad,"ECIL Kapra, Hyderabad - TSPCB","13-12-2025 20:00:00",17.470431,78.566959,NH3,1,6,4
India,Uttar_Pradesh,Bareilly,"Rajendra Nagar, Bareilly - UPPCB","13-12-2025 20:00:00",28.38910936,79.42963708,CO,12,82,20
India,Uttar_Pradesh,Bulandshahr,"Yamunapuram, Bulandshahr - UPPCB","13-12-2025 20:00:00",28.406963,77.849831,CO,63,148,88
India,Uttar_Pradesh,Firozabad,"Nagla Bhau, Firozabad - UPPCB","13-12-2025 20:00:00",27.168897,78.376960,PM2.5,65,142,89
India,Uttar_Pradesh,Firozabad,"Nagla Bhau, Firozabad - UPPCB","13-12-2025 20:00:00",27.168897,78.376960,NH3,2,2,2
India,Uttar_Pradesh,Ghaziabad,"Indirapuram, Ghaziabad - UPPCB","13-12-2025 20:00:00",28.646233,77.358075,CO,56,173,173
India,Telangana,Hyderabad,"ICRISAT Patancheru, Hyderabad - TSPCB","13-12-2025 20:00:00",17.518400,78.278777,NO2,5,23,17
India,Telangana,Hyderabad,"ICRISAT Patancheru, Hyderabad - TSPCB","13-12-2025 20:00:00",17.518400,78.278777,NH3,1,5,4
India,Telangana,Hyderabad,"IDA Pashamylaram, Hyderabad - TSPCB","13-12-2025 20:00:00",17.5316895,78.218939,PM2.5,NA,NA,NA
India,Telangana,Hyderabad,"IDA Pashamylaram, Hyderabad - TSPCB","13-12-2025 20:00:00",17.5316895,78.218939,PM10,NA,NA,NA
India,Telangana,Hyderabad,"Kokapet, Hyderabad - TSPCB","13-12-2025 20:00:00",17.393559,78.339194,PM2.5,47,71,55
India,Telangana,Hyderabad,"Kokapet, Hyderabad - TSPCB","13-12-2025 20:00:00",17.393559,78.339194,OZONE,14,28,25
India,Uttar_Pradesh,Agra,"Shahjahan Garden, Agra - UPPCB","13-12-2025 20:00:00",27.169338,78.03582,SO2,14,21,19
India,Uttar_Pradesh,Baghpat,"Sardar Patel Inter College, Baghpat - UPPCB","13-12-2025 20:00:00",28.964949,77.278761,CO,35,60,47
India,Uttar_Pradesh,Bareilly,"Rajendra Nagar, Bareilly - UPPCB","13-12-2025 20:00:00",28.38910936,79.42963708,PM2.5,39,209,109
India,Uttar_Pradesh,Agra,"Rohta, Agra - UPPCB","13-12-2025 20:00:00",27.106972,78.000111,NH3,7,7,7
India,Uttar_Pradesh,Agra,"Rohta, Agra - UPPCB","13-12-2025 20:00:00",27.106972,78.000111,CO,22,103,30
India,Uttar_Pradesh,Agra,"Sector-3B Avas Vikas Colony, Agra - UPPCB","13-12-2025 20:00:00",27.19412,77.96237,NO2,39,40,39
India,Uttar_Pradesh,Agra,"Sector-3B Avas Vikas Colony, Agra - UPPCB","13-12-2025 20:00:00",27.19412,77.96237,SO2,10,11,10
India,Tripura,Agartala,"Bardowali, Agartala - Tripura SPCB","13-12-2025 20:00:00",23.8175497,91.2726974,CO,28,36,30
India,Uttar_Pradesh,Agra,"Manoharpur, Agra - UPPCB","13-12-2025 20:00:00",27.23711,78.01936,PM2.5,83,306,194
India,Uttar_Pradesh,Agra,"Manoharpur, Agra - UPPCB","13-12-2025 20:00:00",27.23711,78.01936,NO2,29,30,29
India,Telangana,Hyderabad,"Nacharam_TSIIC IALA, Hyderabad - TSPCB","13-12-2025 20:00:00",17.429398,78.569354,CO,31,54,41
India,Telangana,Hyderabad,"New Malakpet, Hyderabad - TSPCB","13-12-2025 20:00:00",17.37206,78.50864,PM10,79,96,85
India,Telangana,Hyderabad,"New Malakpet, Hyderabad - TSPCB","13-12-2025 20:00:00",17.37206,78.50864,OZONE,10,52,35
India,Telangana,Hyderabad,"Sanathnagar, Hyderabad - TSPCB","13-12-2025 20:00:00",17.4559458,78.4332152,OZONE,11,15,14
India,Uttar_Pradesh,Lucknow,"Kendriya Vidyalaya, Lucknow - CPCB","13-12-2025 20:00:00",26.906111,80.948222,PM10,151,273,207
India,Uttar_Pradesh,Lucknow,"Kendriya Vidyalaya, Lucknow - CPCB","13-12-2025 20:00:00",26.906111,80.948222,NO2,46,51,48
India,Uttar_Pradesh,Lucknow,"Lalbagh, Lucknow - CPCB","13-12-2025 20:00:00",26.8458805,80.9365541,PM10,122,401,227
India,Uttar_Pradesh,Lucknow,"Lalbagh, Lucknow - CPCB","13-12-2025 20:00:00",26.8458805,80.9365541,OZONE,13,57,40
India,Uttar_Pradesh,Lucknow,"Talkatora District Industries Center, Lucknow - CPCB","13-12-2025 20:00:00",26.83399722,80.8917361,NH3,4,19,13
India,Uttar_Pradesh,Lucknow,"Talkatora District Industries Center, Lucknow - CPCB","13-12-2025 20:00:00",26.83399722,80.8917361,CO,8,98,28
India,Uttar_Pradesh,Lucknow,"Talkatora District Industries Center, Lucknow - CPCB","13-12-2025 20:00:00",26.83399722,80.8917361,OZONE,9,54,42
India,Uttar_Pradesh,Meerut,"Ganga Nagar, Meerut - UPPCB","13-12-2025 20:00:00",28.999264,77.7590354,PM2.5,107,380,251
India,Uttar_Pradesh,Hapur,"Anand Vihar, Hapur - UPPCB","13-12-2025 20:00:00",28.725645,77.749675,NH3,8,13,11
India,Uttar_Pradesh,Hapur,"Anand Vihar, Hapur - UPPCB","13-12-2025 20:00:00",28.725645,77.749675,OZONE,9,22,22
India,Uttar_Pradesh,Jhansi,"Shivaji Nagar, Jhansi - UPPCB","13-12-2025 20:00:00",25.4547,78.6039,NO2,6,6,6
India,Uttar_Pradesh,Jhansi,"Shivaji Nagar, Jhansi - UPPCB","13-12-2025 20:00:00",25.4547,78.6039,SO2,12,18,16
India,Uttar_Pradesh,Jhansi,"Shivaji Nagar, Jhansi - UPPCB","13-12-2025 20:00:00",25.4547,78.6039,CO,13,85,28
India,Uttar_Pradesh,Kanpur,"FTI Kidwai Nagar, Kanpur - UPPCB","13-12-2025 20:00:00",26.428282,80.327067,NO2,25,25,25
India,Uttar_Pradesh,Ghaziabad,"Vasundhara, Ghaziabad - UPPCB","13-12-2025 20:00:00",28.6603346,77.3572563,CO,33,142,65
India,Uttar_Pradesh,Gorakhpur,"Madan Mohan Malaviya University of Technology, Gorakhpur - UPPCB","13-12-2025 20:00:00",26.730136,83.433859,PM10,11,108,68
India,Uttar_Pradesh,"Greater Noida","Knowledge Park - V, Greater Noida - UPPCB","13-12-2025 20:00:00",28.557054,77.453663,PM10,413,500,467
India,Uttar_Pradesh,"Greater Noida","Knowledge Park - V, Greater Noida - UPPCB","13-12-2025 20:00:00",28.557054,77.453663,NO2,95,181,130
India,Uttar_Pradesh,Kanpur,"Nehru Nagar, Kanpur - UPPCB","13-12-2025 20:00:00",26.4703136,80.3229863,NO2,13,40,23
India,Uttar_Pradesh,Khurja,"Kalindi Kunj, Khurja - UPPCB","13-12-2025 20:00:00",28.2348927,77.8683002,PM2.5,269,358,319
India,Uttar_Pradesh,Lucknow,"B R Ambedkar University, Lucknow - UPPCB","13-12-2025 20:00:00",26.766433,80.927299,PM2.5,50,310,198
India,Uttar_Pradesh,Lucknow,"Gomti Nagar, Lucknow - UPPCB","13-12-2025 20:00:00",26.868120,81.005119,SO2,9,14,10
India,Uttar_Pradesh,Noida,"Sector - 125, Noida - UPPCB","13-12-2025 20:00:00",28.5447608,77.3231257,NH3,2,3,3
India,Uttar_Pradesh,Noida,"Sector - 125, Noida - UPPCB","13-12-2025 20:00:00",28.5447608,77.3231257,CO,4,168,44
India,Uttar_Pradesh,Noida,"Sector-1, Noida - UPPCB","13-12-2025 20:00:00",28.5898,77.3101,SO2,6,34,18
India,Uttar_Pradesh,Noida,"Sector-1, Noida - UPPCB","13-12-2025 20:00:00",28.5898,77.3101,CO,70,167,92
India,Uttar_Pradesh,Noida,"Sector-116, Noida - UPPCB","13-12-2025 20:00:00",28.569230,77.393848,PM2.5,476,500,498
India,Uttar_Pradesh,Noida,"Sector-116, Noida - UPPCB","13-12-2025 20:00:00",28.569230,77.393848,SO2,3,10,6
India,Uttar_Pradesh,Moradabad,"Jigar Colony, Moradabad - UPPCB","13-12-2025 20:00:00",28.856664,78.772638,PM10,72,281,110
India,Uttar_Pradesh,Moradabad,"Jigar Colony, Moradabad - UPPCB","13-12-2025 20:00:00",28.856664,78.772638,SO2,19,56,43
India,Uttar_Pradesh,Moradabad,"Transport Nagar, Moradabad - UPPCB","13-12-2025 20:00:00",28.802625,78.753728,NH3,5,6,6
India,Uttar_Pradesh,Moradabad,"Transport Nagar, Moradabad - UPPCB","13-12-2025 20:00:00",28.802625,78.753728,SO2,33,43,37
India,Uttar_Pradesh,Ghaziabad,"Loni, Ghaziabad - UPPCB","13-12-2025 20:00:00",28.757294,77.278792,PM2.5,NA,NA,NA
India,Uttar_Pradesh,Ghaziabad,"Loni, Ghaziabad - UPPCB","13-12-2025 20:00:00",28.757294,77.278792,NH3,NA,NA,NA
India,Uttar_Pradesh,Ghaziabad,"Sanjay Nagar, Ghaziabad - UPPCB","13-12-2025 20:00:00",28.685382,77.453839,NO2,85,188,114
India,Uttar_Pradesh,Ghaziabad,"Sanjay Nagar, Ghaziabad - UPPCB","13-12-2025 20:00:00",28.685382,77.453839,OZONE,9,27,15
India,Uttar_Pradesh,Meerut,"Pallavpuram Phase 2, Meerut - UPPCB","13-12-2025 20:00:00",29.063510,77.709723,CO,11,120,48
India,Uttar_Pradesh,Moradabad,"Eco Herbal Park, Moradabad - UPPCB","13-12-2025 20:00:00",28.840739,78.697531,NO2,8,55,24
India,Uttar_Pradesh,Meerut,"Ganga Nagar, Meerut - UPPCB","13-12-2025 20:00:00",28.999264,77.7590354,PM10,157,484,305
India,Uttar_Pradesh,Meerut,"Jai Bhim Nagar, Meerut - UPPCB","13-12-2025 20:00:00",28.9535882,77.7622941,CO,42,125,70
India,West_Bengal,Durgapur,"Mahishkapur Road_B-Zone, Durgapur - WBPCB","13-12-2025 20:00:00",23.567923,87.306843,NO2,21,87,46
India,West_Bengal,Durgapur,"Mahishkapur Road_B-Zone, Durgapur - WBPCB","13-12-2025 20:00:00",23.567923,87.306843,NH3,2,2,2
India,West_Bengal,Durgapur,"Mahishkapur Road_B-Zone, Durgapur - WBPCB","13-12-2025 20:00:00",23.567923,87.306843,CO,40,105,57
India,West_Bengal,Durgapur,"PCBL Residential Complex, Durgapur - WBPCB","13-12-2025 20:00:00",23.5087640,87.3544400,PM10,NA,NA,NA
India,West_Bengal,Durgapur,"PCBL Residential Complex, Durgapur - WBPCB","13-12-2025 20:00:00",23.5087640,87.3544400,SO2,NA,NA,NA
India,West_Bengal,Durgapur,"PCBL Residential Complex, Durgapur - WBPCB","13-12-2025 20:00:00",23.5087640,87.3544400,CO,76,102,94
India,West_Bengal,Durgapur,"Womens College_City Center, Durgapur - WBPCB (Formerly known as Sidhu Kanhu Indoor Stadium)","13-12-2025 20:00:00",23.549395,87.300496,PM10,88,217,157
India,West_Bengal,Durgapur,"Womens College_City Center, Durgapur - WBPCB (Formerly known as Sidhu Kanhu Indoor Stadium)","13-12-2025 20:00:00",23.549395,87.300496,OZONE,1,52,27
India,West_Bengal,Haldia,"Priyambada Housing Estate, Haldia - WBPCB","13-12-2025 20:00:00",22.06047,88.109737,NO2,15,50,28
India,Uttar_Pradesh,Vrindavan,"Omex Eternity, Vrindavan - UPPCB","13-12-2025 20:00:00",27.5714090,77.6557570,OZONE,15,15,15
India,Uttarakhand,Dehradun,"Doon University, Dehradun - UKPCB","13-12-2025 20:00:00",30.269444,78.044167,PM2.5,23,261,106
India,Uttarakhand,Kashipur,"Govt. Girls Inter College, Kashipur - UKPCB","13-12-2025 20:00:00",29.2124114,78.9611753,PM2.5,NA,NA,NA
India,Uttar_Pradesh,Varanasi,"IESD Banaras Hindu University, Varanasi - UPPCB","13-12-2025 20:00:00",25.262326,82.995408,PM10,125,220,180
India,Uttar_Pradesh,Varanasi,"IESD Banaras Hindu University, Varanasi - UPPCB","13-12-2025 20:00:00",25.262326,82.995408,CO,24,57,32
India,Uttar_Pradesh,Vrindavan,"Omex Eternity, Vrindavan - UPPCB","13-12-2025 20:00:00",27.5714090,77.6557570,PM2.5,68,309,174
India,West_Bengal,Asansol,"Asansol Court Area, Asansol - WBPCB","13-12-2025 20:00:00",23.685297,86.945968,NH3,2,9,5
India,West_Bengal,Asansol,"Asansol Court Area, Asansol - WBPCB","13-12-2025 20:00:00",23.685297,86.945968,SO2,18,31,24
India,West_Bengal,Barrackpore,"SVSPA Campus, Barrackpore - WBPCB","13-12-2025 20:00:00",22.7605581,88.3617589,PM2.5,79,299,195
India,Uttar_Pradesh,Noida,"Sector-116, Noida - UPPCB","13-12-2025 20:00:00",28.569230,77.393848,OZONE,7,196,102
India,Uttar_Pradesh,Prayagraj,"Jhunsi, Prayagraj - UPPCB","13-12-2025 20:00:00",25.425602,81.917152,NO2,6,6,6
India,Uttar_Pradesh,Prayagraj,"Jhunsi, Prayagraj - UPPCB","13-12-2025 20:00:00",25.425602,81.917152,NH3,5,5,5
India,Uttar_Pradesh,Prayagraj,"Jhunsi, Prayagraj - UPPCB","13-12-2025 20:00:00",25.425602,81.917152,CO,48,100,61
India,Uttar_Pradesh,Prayagraj,"Motilal Nehru NIT, Prayagraj - UPPCB","13-12-2025 20:00:00",25.494,81.863,SO2,27,40,32
India,Uttar_Pradesh,Prayagraj,"Nagar Nigam, Prayagraj - UPPCB","13-12-2025 20:00:00","25.44919916 ","81.82735986 ",NO2,5,5,5
India,Uttar_Pradesh,Prayagraj,"Nagar Nigam, Prayagraj - UPPCB","13-12-2025 20:00:00","25.44919916 ","81.82735986 ",SO2,52,70,61
India,Uttarakhand,Rishikesh,"Shivaji Nagar, Rishikesh - UKPCB","13-12-2025 20:00:00",30.075911,78.2859547,PM10,34,77,55
India,Uttar_Pradesh,Varanasi,"Bhelupur, Varanasi - UPPCB","13-12-2025 20:00:00",25.301778,82.996789,CO,38,110,56
India,West_Bengal,Howrah,"Belur Math, Howrah - WBPCB","13-12-2025 20:00:00",22.629801,88.352017,PM10,117,348,215
India,West_Bengal,Howrah,"Belur Math, Howrah - WBPCB","13-12-2025 20:00:00",22.629801,88.352017,NO2,21,51,32
India,West_Bengal,Howrah,"Ghusuri, Howrah - WBPCB","13-12-2025 20:00:00",22.611968,88.347422,PM2.5,131,480,317
India,West_Bengal,Howrah,"Ghusuri, Howrah - WBPCB","13-12-2025 20:00:00",22.611968,88.347422,CO,24,114,38
India,West_Bengal,Howrah,"Ghusuri, Howrah - WBPCB","13-12-2025 20:00:00",22.611968,88.347422,OZONE,10,29,19
India,West_Bengal,Howrah,"Padmapukur, Howrah - WBPCB","13-12-2025 20:00:00",22.5687319,88.2797276,SO2,5,12,9
India,West_Bengal,Kolkata,"Ballygunge, Kolkata - WBPCB","13-12-2025 20:00:00",22.5367507,88.3638022,PM2.5,78,320,202
India,West_Bengal,Kolkata,"Bidhannagar, Kolkata - WBPCB","13-12-2025 20:00:00",22.58157048,88.41002457,PM2.5,67,319,186
India,West_Bengal,Kolkata,"Bidhannagar, Kolkata - WBPCB","13-12-2025 20:00:00",22.58157048,88.41002457,OZONE,11,42,27
India,West_Bengal,Kolkata,"Fort William, Kolkata - WBPCB","13-12-2025 20:00:00",22.556640,88.342674,PM10,74,195,139
India,West_Bengal,Kolkata,"Fort William, Kolkata - WBPCB","13-12-2025 20:00:00",22.556640,88.342674,CO,20,110,30
India,West_Bengal,Kolkata,"Jadavpur, Kolkata - WBPCB","13-12-2025 20:00:00",22.49929,88.36917,PM10,91,344,200
India,West_Bengal,Kolkata,"Jadavpur, Kolkata - WBPCB","13-12-2025 20:00:00",22.49929,88.36917,SO2,8,14,10
India,West_Bengal,Kolkata,"Jadavpur, Kolkata - WBPCB","13-12-2025 20:00:00",22.49929,88.36917,OZONE,9,19,13
India,West_Bengal,Kolkata,"Rabindra Bharati University, Kolkata - WBPCB","13-12-2025 20:00:00",22.627847,88.380669,PM2.5,62,319,187
India,West_Bengal,Kolkata,"Rabindra Bharati University, Kolkata - WBPCB","13-12-2025 20:00:00",22.627847,88.380669,NH3,12,14,13
India,West_Bengal,Kolkata,"Rabindra Bharati University, Kolkata - WBPCB","13-12-2025 20:00:00",22.627847,88.380669,SO2,11,13,12
India,West_Bengal,Kolkata,"Rabindra Sarobar, Kolkata - WBPCB","13-12-2025 20:00:00",22.51106,88.35142,NO2,42,183,120
India,West_Bengal,Kolkata,"Rabindra Sarobar, Kolkata - WBPCB","13-12-2025 20:00:00",22.51106,88.35142,SO2,7,39,15
India,West_Bengal,Siliguri,"Ward-32 Bapupara, Siliguri - WBPCB","13-12-2025 20:00:00",26.6879226,88.4152495,PM2.5,31,81,50
India,Andhra_Pradesh,Vijayawada,"Rajiv Gandhi Park, Vijayawada - APPCB","13-12-2025 20:00:00",16.509717,80.612222,PM10,NA,NA,NA
India,Andhra_Pradesh,Vijayawada,"Rajiv Gandhi Park, Vijayawada - APPCB","13-12-2025 20:00:00",16.509717,80.612222,NH3,NA,NA,NA
India,Andhra_Pradesh,Vijayawada,"Rajiv Gandhi Park, Vijayawada - APPCB","13-12-2025 20:00:00",16.509717,80.612222,OZONE,12,65,44
India,Andhra_Pradesh,Vijayawada,"Rajiv Nagar, Vijayawada - APPCB","13-12-2025 20:00:00",16.554731,80.649110,NO2,8,12,10
India,Andhra_Pradesh,Visakhapatnam,"GVM Corporation, Visakhapatnam - APPCB","13-12-2025 20:00:00",17.72,83.3,PM2.5,97,302,195
India,Andhra_Pradesh,Visakhapatnam,"GVM Corporation, Visakhapatnam - APPCB","13-12-2025 20:00:00",17.72,83.3,NO2,18,204,103
India,Andhra_Pradesh,Visakhapatnam,"GVM Corporation, Visakhapatnam - APPCB","13-12-2025 20:00:00",17.72,83.3,NH3,3,4,3
India,Andhra_Pradesh,Visakhapatnam,"GVM Corporation, Visakhapatnam - APPCB","13-12-2025 20:00:00",17.72,83.3,SO2,22,109,41
India,Andhra_Pradesh,Visakhapatnam,"GVM Corporation, Visakhapatnam - APPCB","13-12-2025 20:00:00",17.72,83.3,OZONE,4,90,84
India,Arunachal_Pradesh,Naharlagun,"Naharlagun, Naharlagun - APSPCB","13-12-2025 20:00:00",27.103358,93.679645,PM2.5,35,500,187
India,Arunachal_Pradesh,Naharlagun,"Naharlagun, Naharlagun - APSPCB","13-12-2025 20:00:00",27.103358,93.679645,PM10,38,500,162
India,Arunachal_Pradesh,Naharlagun,"Naharlagun, Naharlagun - APSPCB","13-12-2025 20:00:00",27.103358,93.679645,NH3,NA,NA,NA
India,Assam,Nagaon,"Christianpatty, Nagaon - PCBA","13-12-2025 20:00:00",26.349082,92.68449,PM2.5,67,172,118
India,Assam,Nalbari,"Bata Chowk, Nalbari - PCBA","13-12-2025 20:00:00",26.446912,91.439057,CO,20,22,21
India,Assam,Silchar,"Tarapur, Silchar - PCBA","13-12-2025 20:00:00",24.82827,92.79525,CO,44,101,90
India,Assam,Sivasagar,"Girls College, Sivasagar - PCBA","13-12-2025 20:00:00",26.987634,94.636574,SO2,7,16,13
India,Bihar,Araria,"Kharahiya Basti, Araria - BSPCB","13-12-2025 20:00:00",26.146529,87.454184,PM10,14,198,86
India,Bihar,Buxar,"Charitra Van, Buxar - BSPCB","13-12-2025 20:00:00",25.567520,83.966379,PM10,100,217,157
India,Bihar,Buxar,"Charitra Van, Buxar - BSPCB","13-12-2025 20:00:00",25.567520,83.966379,CO,23,28,25
India,Bihar,Chhapra,"Darshan Nagar, Chhapra - BSPCB","13-12-2025 20:00:00",25.7808257,84.7446768,PM2.5,42,368,198
India,Bihar,Gaya,"Collectorate, Gaya - BSPCB","13-12-2025 20:00:00",24.7955,84.9994,PM2.5,88,368,209
India,Bihar,Gaya,"Collectorate, Gaya - BSPCB","13-12-2025 20:00:00",24.7955,84.9994,CO,38,115,75
India,Bihar,Gaya,"Kareemganj, Gaya - BSPCB","13-12-2025 20:00:00",24.792403,84.992416,NO2,3,8,5
India,Andhra_Pradesh,Amaravati,"Secretariat, Amaravati - APPCB","13-12-2025 20:00:00",16.5150833,80.5181667,NH3,1,4,2
India,Andhra_Pradesh,Chittoor,"Gangineni Cheruvu, Chittoor - APPCB","13-12-2025 20:00:00",13.204880,79.097889,PM2.5,22,500,158
India,Andhra_Pradesh,Chittoor,"Gangineni Cheruvu, Chittoor - APPCB","13-12-2025 20:00:00",13.204880,79.097889,NO2,18,35,32
India,Andhra_Pradesh,Chittoor,"Gangineni Cheruvu, Chittoor - APPCB","13-12-2025 20:00:00",13.204880,79.097889,SO2,7,35,15
India,Andhra_Pradesh,Chittoor,"Gangineni Cheruvu, Chittoor - APPCB","13-12-2025 20:00:00",13.204880,79.097889,OZONE,55,62,58
India,Andhra_Pradesh,Kadapa,"Yerramukkapalli, Kadapa - APPCB","13-12-2025 20:00:00",14.465052,78.824187,CO,2,46,2
India,Assam,Guwahati,"LGBI Airport, Guwahati - PCBA","13-12-2025 20:00:00",26.10887,91.589544,NH3,5,6,5
India,Assam,Guwahati,"LGBI Airport, Guwahati - PCBA","13-12-2025 20:00:00",26.10887,91.589544,OZONE,11,14,12
India,Assam,Guwahati,"Pan Bazaar, Guwahati - PCBA","13-12-2025 20:00:00",26.187500,91.744194,SO2,16,35,25
India,Assam,Guwahati,"Railway Colony, Guwahati - PCBA","13-12-2025 20:00:00",26.181742,91.78063,PM2.5,44,386,210
India,Assam,Guwahati,"Railway Colony, Guwahati - PCBA","13-12-2025 20:00:00",26.181742,91.78063,PM10,46,309,149
India,Assam,Guwahati,"Railway Colony, Guwahati - PCBA","13-12-2025 20:00:00",26.181742,91.78063,SO2,33,35,34
India,Andhra_Pradesh,Rajamahendravaram,"Anand Kala Kshetram, Rajamahendravaram - APPCB","13-12-2025 20:00:00",16.9872867,81.7363176,NH3,2,8,4
India,Andhra_Pradesh,Rajamahendravaram,"Anand Kala Kshetram, Rajamahendravaram - APPCB","13-12-2025 20:00:00",16.9872867,81.7363176,OZONE,10,28,26
India,Andhra_Pradesh,Tirumala,"Toll Gate, Tirumala - APPCB","13-12-2025 20:00:00",13.67,79.35,NH3,1,2,1
India,Andhra_Pradesh,Vijayawada,"HB Colony, Vijayawada - APPCB","13-12-2025 20:00:00",16.536107,80.594233,NO2,14,14,14
India,Andhra_Pradesh,Vijayawada,"HB Colony, Vijayawada - APPCB","13-12-2025 20:00:00",16.536107,80.594233,CO,32,41,39
India,Bihar,Bhagalpur,"Mayaganj, Bhagalpur - BSPCB","13-12-2025 20:00:00",25.265194,87.012947,PM10,25,152,111
India,Bihar,Bhagalpur,"Mayaganj, Bhagalpur - BSPCB","13-12-2025 20:00:00",25.265194,87.012947,NO2,5,9,7
India,Bihar,Bhagalpur,"Mayaganj, Bhagalpur - BSPCB","13-12-2025 20:00:00",25.265194,87.012947,OZONE,10,76,55
India,Bihar,"Bihar Sharif","D M Colony, Bihar Sharif - BSPCB","13-12-2025 20:00:00",25.204762,85.514960,NO2,NA,NA,NA
India,Bihar,"Bihar Sharif","D M Colony, Bihar Sharif - BSPCB","13-12-2025 20:00:00",25.204762,85.514960,SO2,9,11,10
India,Bihar,Arrah,"New DM Office, Arrah - BSPCB","13-12-2025 20:00:00",25.5626095,84.663264,PM10,71,189,129
India,Bihar,Bettiah,"Kamalnath Nagar, Bettiah - BSPCB","13-12-2025 20:00:00",26.80365,84.51954,PM10,33,183,103
India,Bihar,Bettiah,"Kamalnath Nagar, Bettiah - BSPCB","13-12-2025 20:00:00",26.80365,84.51954,NO2,6,10,8
India,Bihar,Bettiah,"Kamalnath Nagar, Bettiah - BSPCB","13-12-2025 20:00:00",26.80365,84.51954,SO2,NA,NA,NA
India,"Andaman and Nicobar","Sri Vijaya Puram","Police Line, Sri Vijaya Puram - ANPCC","13-12-2025 20:00:00",11.654054,92.734055,PM10,24,500,212
India,"Andaman and Nicobar","Sri Vijaya Puram","Police Line, Sri Vijaya Puram - ANPCC","13-12-2025 20:00:00",11.654054,92.734055,NH3,6,15,9
India,"Andaman and Nicobar","Sri Vijaya Puram","Police Line, Sri Vijaya Puram - ANPCC","13-12-2025 20:00:00",11.654054,92.734055,SO2,1,41,15
India,"Andaman and Nicobar","Sri Vijaya Puram","Police Line, Sri Vijaya Puram - ANPCC","13-12-2025 20:00:00",11.654054,92.734055,OZONE,1,32,7
India,Bihar,Katihar,"Mirchaibari, Katihar - BSPCB","13-12-2025 20:00:00",25.560083,87.553265,PM10,17,113,68
India,Bihar,Katihar,"Mirchaibari, Katihar - BSPCB","13-12-2025 20:00:00",25.560083,87.553265,SO2,9,18,14
India,Bihar,Muzaffarpur,"MIT-Daudpur Kothi, Muzaffarpur - BSPCB","13-12-2025 20:00:00",26.1403345,85.3650192,SO2,9,17,14
India,Bihar,Muzaffarpur,"Muzaffarpur Collectorate, Muzaffarpur - BSPCB","13-12-2025 20:00:00",26.1209,85.3647,PM2.5,93,130,115
India,Bihar,Muzaffarpur,"Muzaffarpur Collectorate, Muzaffarpur - BSPCB","13-12-2025 20:00:00",26.1209,85.3647,CO,10,51,33
India,Bihar,Patna,"DRM Office Danapur, Patna - BSPCB","13-12-2025 20:00:00",25.586562,85.043586,PM10,75,237,145
India,Bihar,Patna,"DRM Office Danapur, Patna - BSPCB","13-12-2025 20:00:00",25.586562,85.043586,NH3,6,35,15
India,Bihar,Patna,"DRM Office Danapur, Patna - BSPCB","13-12-2025 20:00:00",25.586562,85.043586,SO2,9,24,15
India,Bihar,Patna,"Govt. High School Shikarpur, Patna - BSPCB","13-12-2025 20:00:00",25.592539,85.227158,SO2,NA,NA,NA
India,Bihar,Patna,"Govt. High School Shikarpur, Patna - BSPCB","13-12-2025 20:00:00",25.592539,85.227158,OZONE,6,12,9
India,Chandigarh,Chandigarh,"Sector-53, Chandigarh - CPCC","13-12-2025 20:00:00",30.719859,76.738637,CO,8,132,69
India,Chandigarh,Chandigarh,"Sector-53, Chandigarh - CPCC","13-12-2025 20:00:00",30.719859,76.738637,OZONE,2,35,17
India,Chhattisgarh,Bhilai,"32Bungalows, Bhilai - CECB","13-12-2025 20:00:00",21.194815,81.314770,NH3,1,3,2
India,Chhattisgarh,Bhilai,"32Bungalows, Bhilai - CECB","13-12-2025 20:00:00",21.194815,81.314770,CO,20,106,30
India,Chhattisgarh,Bhilai,"Civic Center, Bhilai - Bhilai Steel Plant","13-12-2025 20:00:00",21.185571,81.343175,NH3,6,6,6
India,Chhattisgarh,Bhilai,"Civic Center, Bhilai - Bhilai Steel Plant","13-12-2025 20:00:00",21.185571,81.343175,OZONE,4,14,9
India,Chhattisgarh,Bhilai,"Hathkhoj, Bhilai - CECB","13-12-2025 20:00:00",21.224231,81.408350,NH3,2,6,4
India,Chhattisgarh,Bhilai,"Hathkhoj, Bhilai - CECB","13-12-2025 20:00:00",21.224231,81.408350,SO2,14,73,38
India,Bihar,Rajgir,"Dangi Tola, Rajgir - BSPCB","13-12-2025 20:00:00",25.03280,85.41948,PM10,29,213,133
India,Bihar,Saharsa,"Police Line, Saharsa - BSPCB","13-12-2025 20:00:00",25.892357,86.590325,SO2,NA,NA,NA
India,Bihar,Samastipur,"DM Office_Kasipur, Samastipur - BSPCB","13-12-2025 20:00:00",25.859655,85.77944,PM10,43,197,116
India,Bihar,Samastipur,"DM Office_Kasipur, Samastipur - BSPCB","13-12-2025 20:00:00",25.859655,85.77944,CO,31,130,67
India,Bihar,Sasaram,"Dada Peer, Sasaram - BSPCB","13-12-2025 20:00:00",24.952822,84.002396,NH3,3,5,3
India,Bihar,Sasaram,"Dada Peer, Sasaram - BSPCB","13-12-2025 20:00:00",24.952822,84.002396,SO2,3,5,4
India,Chhattisgarh,Chhal,"Nawapara SECL Colony, Chhal - CECB","13-12-2025 20:00:00",22.118125,83.140608,SO2,7,59,25
India,Chhattisgarh,Chhal,"Nawapara SECL Colony, Chhal - CECB","13-12-2025 20:00:00",22.118125,83.140608,CO,24,72,34
India,Chhattisgarh,Korba,"Rampur, Korba - CECB","13-12-2025 20:00:00",22.368195,82.746431,PM10,72,86,85
India,Chhattisgarh,Korba,"Urja Nagar, Korba - CECB","13-12-2025 20:00:00",22.348441,82.549611,PM10,92,93,92
India,Chhattisgarh,Korba,"Urja Nagar, Korba - CECB","13-12-2025 20:00:00",22.348441,82.549611,OZONE,35,36,35
India,Chhattisgarh,Kunjemura,"OP Jindal School, Kunjemura - CECB","13-12-2025 20:00:00",22.126650,83.483212,SO2,1,37,13
India,Bihar,Patna,"Muradpur, Patna - BSPCB","13-12-2025 20:00:00",25.619651,85.147382,CO,36,88,44
India,Bihar,Patna,"Rajbansi Nagar, Patna - BSPCB","13-12-2025 20:00:00",25.599486,85.113666,PM2.5,64,294,174
India,Bihar,Patna,"Rajbansi Nagar, Patna - BSPCB","13-12-2025 20:00:00",25.599486,85.113666,NO2,36,159,111
India,Bihar,Patna,"Rajbansi Nagar, Patna - BSPCB","13-12-2025 20:00:00",25.599486,85.113666,SO2,6,8,7
India,Bihar,Patna,"Samanpura, Patna - BSPCB","13-12-2025 20:00:00",25.596727,85.085624,PM2.5,65,364,273
India,Bihar,Purnia,"Mariam Nagar, Purnia - BSPCB","13-12-2025 20:00:00",25.366336,87.117468,PM2.5,17,133,66
India,Bihar,Motihari,"Gandak Colony, Motihari - BSPCB","13-12-2025 20:00:00",26.63086,84.90051,OZONE,3,5,5
India,Bihar,Munger,"Town Hall, Munger - BSPCB","13-12-2025 20:00:00",25.376776,86.471523,NO2,4,5,5
India,Bihar,Munger,"Town Hall, Munger - BSPCB","13-12-2025 20:00:00",25.376776,86.471523,SO2,12,58,40
India,Bihar,Muzaffarpur,"Buddha Colony, Muzaffarpur - BSPCB","13-12-2025 20:00:00",26.11442,85.39813,PM2.5,40,264,169
India,Chandigarh,Chandigarh,"Sector-25, Chandigarh - CPCC","13-12-2025 20:00:00",30.751462,76.762879,PM10,76,228,131
India,Chandigarh,Chandigarh,"Sector-25, Chandigarh - CPCC","13-12-2025 20:00:00",30.751462,76.762879,NO2,19,69,36
India,Chandigarh,Chandigarh,"Sector-53, Chandigarh - CPCC","13-12-2025 20:00:00",30.719859,76.738637,PM2.5,53,325,142
India,Chandigarh,Chandigarh,"Sector-53, Chandigarh - CPCC","13-12-2025 20:00:00",30.719859,76.738637,NO2,43,128,78
India,Chandigarh,Chandigarh,"Sector-53, Chandigarh - CPCC","13-12-2025 20:00:00",30.719859,76.738637,SO2,8,34,15
India,Bihar,Siwan,"Chitragupta Nagar, Siwan - BSPCB","13-12-2025 20:00:00",26.2271665,84.3570427,NH3,1,1,1
India,Chandigarh,Chandigarh,"Sector 22, Chandigarh - CPCC","13-12-2025 20:00:00",30.735567,76.775714,NO2,50,136,81
India,Chandigarh,Chandigarh,"Sector 22, Chandigarh - CPCC","13-12-2025 20:00:00",30.735567,76.775714,NH3,11,26,18
India,Bihar,Motihari,"Gandak Colony, Motihari - BSPCB","13-12-2025 20:00:00",26.63086,84.90051,NO2,8,12,10
India,Bihar,Motihari,"Gandak Colony, Motihari - BSPCB","13-12-2025 20:00:00",26.63086,84.90051,SO2,2,3,3
India,Delhi,Delhi,"Chandni Chowk, Delhi - IITM","13-12-2025 20:00:00",28.656756,77.227234,OZONE,2,203,88
India,Delhi,Delhi,"DTU, Delhi - CPCB","13-12-2025 20:00:00",28.7500499,77.1112615,NH3,9,12,11
India,Delhi,Delhi,"DTU, Delhi - CPCB","13-12-2025 20:00:00",28.7500499,77.1112615,CO,80,111,106
India,Delhi,Delhi,"Dr. Karni Singh Shooting Range, Delhi - DPCC","13-12-2025 20:00:00",28.498571,77.264840,PM10,384,466,428
India,Delhi,Delhi,"Dr. Karni Singh Shooting Range, Delhi - DPCC","13-12-2025 20:00:00",28.498571,77.264840,NH3,12,19,16
India,Delhi,Delhi,"Dwarka-Sector 8, Delhi - DPCC ","13-12-2025 20:00:00",28.5710274,77.0719006,OZONE,6,230,100
India,Delhi,Delhi,"IGI Airport (T3), Delhi - IMD","13-12-2025 20:00:00",28.5627763,77.1180053,PM10,225,458,400
India,Delhi,Delhi,"IHBAS, Dilshad Garden, Delhi - CPCB","13-12-2025 20:00:00",28.6811736,77.3025234,OZONE,21,28,24
India,Delhi,Delhi,"IIT Delhi, Delhi - IITM","13-12-2025 20:00:00",28.542460,77.191651,NO2,36,132,74
India,Delhi,Delhi,"ITO, Delhi - CPCB","13-12-2025 20:00:00",28.628624,77.241060,PM2.5,369,500,483
India,Delhi,Delhi,"ITO, Delhi - CPCB","13-12-2025 20:00:00",28.628624,77.241060,PM10,257,500,447
India,Delhi,Delhi,"ITO, Delhi - CPCB","13-12-2025 20:00:00",28.628624,77.241060,SO2,7,25,18
India,Delhi,Delhi,"ITO, Delhi - CPCB","13-12-2025 20:00:00",28.628624,77.241060,CO,15,162,73
India,Delhi,Delhi,"Jahangirpuri, Delhi - DPCC","13-12-2025 20:00:00",28.732820,77.170633,CO,98,180,113
India,Delhi,Delhi,"Jahangirpuri, Delhi - DPCC","13-12-2025 20:00:00",28.732820,77.170633,OZONE,5,109,59
India,Chhattisgarh,Raipur,"Siltara Phase-II, Raipur - CECB","13-12-2025 20:00:00",21.371751,81.664929,SO2,3,9,5
India,Chhattisgarh,Tumidih,"OP Jindal Industrial Park, Tumidih - CECB","13-12-2025 20:00:00",22.06631475,83.33820077,NH3,1,2,2
India,Chhattisgarh,Tumidih,"OP Jindal Industrial Park, Tumidih - CECB","13-12-2025 20:00:00",22.06631475,83.33820077,SO2,5,16,6
India,Chhattisgarh,Tumidih,"OP Jindal Industrial Park, Tumidih - CECB","13-12-2025 20:00:00",22.06631475,83.33820077,CO,19,44,20
India,Delhi,Delhi,"Anand Vihar, Delhi - DPCC","13-12-2025 20:00:00",28.647622,77.3158090,CO,113,159,118
India,Delhi,Delhi,"Ashok Vihar, Delhi - DPCC","13-12-2025 20:00:00",28.695381,77.181665,NH3,1,2,1
India,Delhi,Delhi,"Jawaharlal Nehru Stadium, Delhi - DPCC","13-12-2025 20:00:00",28.580280,77.233829,OZONE,1,219,100
India,Delhi,Delhi,"Lodhi Road, Delhi - IITM","13-12-2025 20:00:00",28.588333,77.221667,PM2.5,NA,NA,NA
India,Delhi,Delhi,"Lodhi Road, Delhi - IITM","13-12-2025 20:00:00",28.588333,77.221667,NO2,NA,NA,NA
India,Delhi,Delhi,"Lodhi Road, Delhi - IMD","13-12-2025 20:00:00",28.5918245,77.2273074,PM10,NA,NA,NA
India,Delhi,Delhi,"Lodhi Road, Delhi - IMD","13-12-2025 20:00:00",28.5918245,77.2273074,CO,NA,NA,NA
India,Delhi,Delhi,"Major Dhyan Chand National Stadium, Delhi - DPCC","13-12-2025 20:00:00",28.611281,77.237738,PM2.5,345,500,412
India,Delhi,Delhi,"Aya Nagar, Delhi - IMD","13-12-2025 20:00:00",28.4706914,77.1099364,CO,42,128,63
India,Delhi,Delhi,"Aya Nagar, Delhi - IMD","13-12-2025 20:00:00",28.4706914,77.1099364,OZONE,7,139,86
India,Delhi,Delhi,"Bawana, Delhi - DPCC","13-12-2025 20:00:00",28.776200,77.051074,NH3,2,4,3
India,Delhi,Delhi,"Chandni Chowk, Delhi - IITM","13-12-2025 20:00:00",28.656756,77.227234,PM2.5,348,500,458
India,Delhi,Delhi,"NSIT Dwarka, Delhi - CPCB","13-12-2025 20:00:00",28.60909,77.0325413,PM2.5,205,480,285
India,Delhi,Delhi,"Najafgarh, Delhi - DPCC","13-12-2025 20:00:00",28.570173,76.933762,PM10,148,440,235
India,Delhi,Delhi,"Najafgarh, Delhi - DPCC","13-12-2025 20:00:00",28.570173,76.933762,NO2,96,190,129
India,Delhi,Delhi,"Najafgarh, Delhi - DPCC","13-12-2025 20:00:00",28.570173,76.933762,NH3,9,14,11
India,Chhattisgarh,Kunjemura,"OP Jindal School, Kunjemura - CECB","13-12-2025 20:00:00",22.126650,83.483212,OZONE,1,68,55
India,Chhattisgarh,Raipur,"AIIMS, Raipur - CECB","13-12-2025 20:00:00",21.258815,81.578979,NO2,81,93,87
India,Chhattisgarh,Raipur,"AIIMS, Raipur - CECB","13-12-2025 20:00:00",21.258815,81.578979,OZONE,NA,NA,NA
India,Delhi,Delhi,"Major Dhyan Chand National Stadium, Delhi - DPCC","13-12-2025 20:00:00",28.611281,77.237738,OZONE,1,179,94
India,Delhi,Delhi,"Mandir Marg, Delhi - DPCC","13-12-2025 20:00:00",28.636429,77.201067,PM10,194,488,386
India,Delhi,Delhi,"Nehru Nagar, Delhi - DPCC","13-12-2025 20:00:00",28.567890,77.250515,PM10,325,500,441
India,Delhi,Delhi,"North Campus, DU, Delhi - IMD","13-12-2025 20:00:00",28.6573814,77.1585447,PM10,367,490,433
India,Delhi,Delhi,"Punjabi Bagh, Delhi - DPCC","13-12-2025 20:00:00",28.674045,77.131023,OZONE,6,90,47
India,Delhi,Delhi,"Pusa, Delhi - DPCC","13-12-2025 20:00:00",28.639652,77.146275,PM2.5,351,500,441
India,Delhi,Delhi,"Pusa, Delhi - DPCC","13-12-2025 20:00:00",28.639652,77.146275,PM10,279,476,395
India,Delhi,Delhi,"Pusa, Delhi - DPCC","13-12-2025 20:00:00",28.639652,77.146275,NO2,54,318,118
India,Delhi,Delhi,"Pusa, Delhi - DPCC","13-12-2025 20:00:00",28.639652,77.146275,CO,36,104,63
India,Delhi,Delhi,"Pusa, Delhi - IMD","13-12-2025 20:00:00",28.636110,77.173332,PM2.5,336,500,437
India,Delhi,Delhi,"Pusa, Delhi - IMD","13-12-2025 20:00:00",28.636110,77.173332,CO,66,161,98
India,Delhi,Delhi,"Pusa, Delhi - IMD","13-12-2025 20:00:00",28.636110,77.173332,OZONE,22,73,49
India,Delhi,Delhi,"R K Puram, Delhi - DPCC","13-12-2025 20:00:00",28.563262,77.186937,OZONE,16,144,68
India,Delhi,Delhi,"Rohini, Delhi - DPCC","13-12-2025 20:00:00",28.732528,77.119920,PM2.5,396,500,492
India,Delhi,Delhi,"Rohini, Delhi - DPCC","13-12-2025 20:00:00",28.732528,77.119920,NO2,34,203,92
India,Delhi,Delhi,"Rohini, Delhi - DPCC","13-12-2025 20:00:00",28.732528,77.119920,SO2,5,14,8
India,Delhi,Delhi,"Rohini, Delhi - DPCC","13-12-2025 20:00:00",28.732528,77.119920,CO,82,174,99
India,Gujarat,Ankleshwar,"GIDC, Ankleshwar - GPCB","13-12-2025 20:00:00",21.613267,73.010555,CO,22,82,37
India,Gujarat,Gandhinagar,"IIPHG Lekawada, Gandhinagar - IITM","13-12-2025 20:00:00",23.243639,72.68994,SO2,4,10,6
India,Gujarat,Gandhinagar,"Sector-10, Gandhinagar - GPCB","13-12-2025 20:00:00",23.221714,72.654328,NO2,17,54,29
India,Gujarat,Gandhinagar,"Sector-10, Gandhinagar - GPCB","13-12-2025 20:00:00",23.221714,72.654328,NH3,3,5,4
India,Gujarat,Gandhinagar,"Sector-10, Gandhinagar - GPCB","13-12-2025 20:00:00",23.221714,72.654328,SO2,9,16,12
India,Gujarat,Vapi,"Phase-1 GIDC, Vapi - GPCB","13-12-2025 20:00:00",20.362421,72.918013,PM10,47,145,84
India,Gujarat,Vapi,"Phase-1 GIDC, Vapi - GPCB","13-12-2025 20:00:00",20.362421,72.918013,NO2,1,69,9
India,Gujarat,Vapi,"Phase-1 GIDC, Vapi - GPCB","13-12-2025 20:00:00",20.362421,72.918013,OZONE,6,24,16
India,Delhi,Delhi,"Vivek Vihar, Delhi - DPCC","13-12-2025 20:00:00",28.672342,77.315260,PM10,440,500,470
India,Delhi,Delhi,"Vivek Vihar, Delhi - DPCC","13-12-2025 20:00:00",28.672342,77.315260,CO,40,145,62
India,Delhi,Delhi,"Wazirpur, Delhi - DPCC","13-12-2025 20:00:00",28.699793,77.165453,PM2.5,410,500,492
India,Delhi,Delhi,"Wazirpur, Delhi - DPCC","13-12-2025 20:00:00",28.699793,77.165453,OZONE,5,107,49
India,Gujarat,Ahmedabad,"Chandkheda, Ahmedabad - IITM","13-12-2025 20:00:00",23.107969,72.574648,NO2,19,138,75
India,Gujarat,Ahmedabad,"Chandkheda, Ahmedabad - IITM","13-12-2025 20:00:00",23.107969,72.574648,NH3,5,24,12
India,Gujarat,Ahmedabad,"Chandkheda, Ahmedabad - IITM","13-12-2025 20:00:00",23.107969,72.574648,SO2,4,12,8
India,Gujarat,Ahmedabad,"Chandkheda, Ahmedabad - IITM","13-12-2025 20:00:00",23.107969,72.574648,CO,10,110,33
India,Delhi,Delhi,"Shadipur, Delhi - CPCB","13-12-2025 20:00:00",28.6514781,77.1473105,NO2,53,163,105
India,Delhi,Delhi,"Shadipur, Delhi - CPCB","13-12-2025 20:00:00",28.6514781,77.1473105,NH3,13,23,17
India,Delhi,Delhi,"Shadipur, Delhi - CPCB","13-12-2025 20:00:00",28.6514781,77.1473105,SO2,5,22,13
India,Delhi,Delhi,"Shadipur, Delhi - CPCB","13-12-2025 20:00:00",28.6514781,77.1473105,OZONE,9,27,17
India,Delhi,Delhi,"Sri Aurobindo Marg, Delhi - DPCC","13-12-2025 20:00:00",28.531346,77.190156,PM10,166,426,315
India,Delhi,Delhi,"Sri Aurobindo Marg, Delhi - DPCC","13-12-2025 20:00:00",28.531346,77.190156,SO2,5,15,10
India,Gujarat,Ahmedabad,"SAC ISRO Bopal, Ahmedabad - IITM","13-12-2025 20:00:00",23.041137,72.456691,SO2,2,34,7
India,Gujarat,Ahmedabad,"SAC ISRO Bopal, Ahmedabad - IITM","13-12-2025 20:00:00",23.041137,72.456691,CO,4,34,10
India,Gujarat,Ahmedabad,"SAC ISRO Satellite, Ahmedabad - IITM","13-12-2025 20:00:00",23.023389,72.515201,SO2,4,19,10
India,Gujarat,Ahmedabad,"SVPI Airport Hansol, Ahmedabad - IITM","13-12-2025 20:00:00",23.076793,72.627874,NO2,36,209,86
India,Gujarat,Ahmedabad,"SVPI Airport Hansol, Ahmedabad - IITM","13-12-2025 20:00:00",23.076793,72.627874,OZONE,1,47,32
India,Gujarat,Ahmedabad,"Gyaspur, Ahmedabad - IITM","13-12-2025 20:00:00",22.977134,72.553024,CO,23,119,44
India,Gujarat,Ahmedabad,"Maninagar, Ahmedabad - GPCB","13-12-2025 20:00:00",23.002657,72.591912,CO,20,36,26
India,Gujarat,Ahmedabad,"Raikhad, Ahmedabad - IITM","13-12-2025 20:00:00",23.020509,72.579261,PM2.5,77,199,138
India,Gujarat,Ahmedabad,"Rakhial, Ahmedabad - IITM","13-12-2025 20:00:00",23.016834,72.625775,CO,6,143,40
India,Delhi,Delhi,"Okhla Phase-2, Delhi - DPCC","13-12-2025 20:00:00",28.530785,77.271255,NO2,120,294,197
India,Delhi,Delhi,"Okhla Phase-2, Delhi - DPCC","13-12-2025 20:00:00",28.530785,77.271255,NH3,21,29,25
India,Delhi,Delhi,"Patparganj, Delhi - DPCC","13-12-2025 20:00:00",28.623763,77.287209,PM2.5,411,500,483
India,Delhi,Delhi,"Patparganj, Delhi - DPCC","13-12-2025 20:00:00",28.623763,77.287209,NH3,16,20,18
India,Haryana,Bahadurgarh,"Arya Nagar, Bahadurgarh - HSPCB","13-12-2025 20:00:00",28.6701,76.9254,OZONE,16,19,18
India,Haryana,Bhiwani,"H.B. Colony, Bhiwani - HSPCB","13-12-2025 20:00:00",28.806223,76.141105,PM2.5,102,422,170
India,Haryana,Bhiwani,"H.B. Colony, Bhiwani - HSPCB","13-12-2025 20:00:00",28.806223,76.141105,NH3,1,9,8
India,Haryana,Ambala,"Patti Mehar, Ambala - HSPCB","13-12-2025 20:00:00",30.379589,76.778328,SO2,31,31,31
India,Haryana,Bahadurgarh,"Arya Nagar, Bahadurgarh - HSPCB","13-12-2025 20:00:00",28.6701,76.9254,NO2,12,14,13
India,Haryana,Bahadurgarh,"Arya Nagar, Bahadurgarh - HSPCB","13-12-2025 20:00:00",28.6701,76.9254,SO2,7,7,7
India,Haryana,Panipat,"Sector-18, Panipat - HSPCB","13-12-2025 20:00:00",29.432304,76.972765,SO2,11,11,11
India,Haryana,Panipat,"Sector-18, Panipat - HSPCB","13-12-2025 20:00:00",29.432304,76.972765,CO,47,48,48
India,Haryana,Rohtak,"MD University, Rohtak - HSPCB","13-12-2025 20:00:00",28.52123,76.37138,PM10,123,238,159
India,Haryana,Rohtak,"MD University, Rohtak - HSPCB","13-12-2025 20:00:00",28.52123,76.37138,NO2,10,12,11
India,Haryana,Sirsa,"F-Block, Sirsa - HSPCB","13-12-2025 20:00:00",29.536400,75.015800,NH3,11,15,13
India,Haryana,Sirsa,"F-Block, Sirsa - HSPCB","13-12-2025 20:00:00",29.536400,75.015800,SO2,10,15,13
India,Haryana,Sirsa,"F-Block, Sirsa - HSPCB","13-12-2025 20:00:00",29.536400,75.015800,CO,41,65,46
India,Haryana,Sonipat,"Murthal, Sonipat - HSPCB","13-12-2025 20:00:00",29.027200,77.062100,PM2.5,95,372,255
India,Haryana,Sonipat,"Murthal, Sonipat - HSPCB","13-12-2025 20:00:00",29.027200,77.062100,NO2,24,61,43
India,Haryana,Sonipat,"Murthal, Sonipat - HSPCB","13-12-2025 20:00:00",29.027200,77.062100,NH3,17,41,23
India,Haryana,"Yamuna Nagar","Gobind Pura, Yamuna Nagar - HSPCB","13-12-2025 20:00:00",30.1480566,77.2893471,PM10,93,254,146
India,Haryana,Faridabad,"Sector 30, Faridabad - HSPCB","13-12-2025 20:00:00",28.4417,77.3217,NH3,11,12,11
India,Haryana,Gurugram,"NISE Gwal Pahari, Gurugram - IMD","13-12-2025 20:00:00",28.422681,77.148944,PM2.5,311,425,376
India,Haryana,Gurugram,"NISE Gwal Pahari, Gurugram - IMD","13-12-2025 20:00:00",28.422681,77.148944,PM10,213,431,322
India,Haryana,Gurugram,"NISE Gwal Pahari, Gurugram - IMD","13-12-2025 20:00:00",28.422681,77.148944,NO2,21,42,33
India,Haryana,Gurugram,"Sector-51, Gurugram - HSPCB","13-12-2025 20:00:00",28.4227,77.0667,OZONE,10,17,17
India,Haryana,Gurugram,"Teri Gram, Gurugram - HSPCB","13-12-2025 20:00:00",28.4275,77.1465,SO2,1,35,13
India,Haryana,Gurugram,"Teri Gram, Gurugram - HSPCB","13-12-2025 20:00:00",28.4275,77.1465,CO,46,101,66
India,Haryana,"Yamuna Nagar","Gobind Pura, Yamuna Nagar - HSPCB","13-12-2025 20:00:00",30.1480566,77.2893471,OZONE,8,33,27
India,"Himachal Pradesh",Baddi,"HIMUDA Complex Phase-1, Baddi - HPPCB","13-12-2025 20:00:00",30.943887,76.801991,PM10,99,412,190
India,"Himachal Pradesh",Baddi,"HIMUDA Complex Phase-1, Baddi - HPPCB","13-12-2025 20:00:00",30.943887,76.801991,NH3,4,7,5
India,Jammu_and_Kashmir,Srinagar,"Rajbagh, Srinagar - JKSPCB","13-12-2025 20:00:00",34.066206,74.819820,SO2,3,4,3
India,Haryana,Faridabad,"New Industrial Town, Faridabad - HSPCB","13-12-2025 20:00:00",28.39072,77.30059,NH3,11,12,11
India,Haryana,Faridabad,"New Industrial Town, Faridabad - HSPCB","13-12-2025 20:00:00",28.39072,77.30059,SO2,8,8,8
India,Haryana,Faridabad,"Sector 11, Faridabad - HSPCB","13-12-2025 20:00:00",28.376058,77.315741,NH3,9,10,10
India,Haryana,Faridabad,"Sector 11, Faridabad - HSPCB","13-12-2025 20:00:00",28.376058,77.315741,OZONE,15,16,15
India,Haryana,Faridabad,"Sector 30, Faridabad - HSPCB","13-12-2025 20:00:00",28.4417,77.3217,PM10,64,137,103
